IMU_ATTI(0):alti:D,IMU_ATTI(0):relativeHeight:C,IMU_ATTI(0):roll:C,IMU_ATTI(0):pitch:C,IMU_ATTI(0):yaw:C,AirSpeed:windSpeed,AirSpeed:windDirection
217.56071,0.6078646933593745,0.6005239161360894,1.0357892946609497,101.33993603418244,0.12407588,-58.394752621676645
217.56065,1.084564522460937,0.542000546264533,1.0148589872039462,101.333240812884,0.13040307,-61.22028167181934
217.56047,0.981109932617187,0.4835563839078883,1.0187034674477478,101.31728980485084,0.13040307,-61.22028167181934
217.56021,0.7336276328124995,0.4278826193338977,1.0508267101888156,101.31151047905438,0.13040307,-61.22028167181934
217.55994,1.553161934570312,0.3616041334584419,1.1297024395164232,101.3180661445302,0.13040307,-61.22028167181934
217.56015,1.329010323242187,0.3024115553551852,1.229724911990618,101.32397165111674,0.13040307,-61.22028167181934
217.56053,0.833038643554687,0.2760490158827732,1.317696108153294,101.32077946887767,0.13040307,-61.22028167181934
217.56119,1.081543282226562,0.271681296274304,1.4214335425072848,101.32436665722672,0.13766035,-63.867697776483965
217.56166,0.4333956992187495,0.3136096433916756,1.5116578124597382,101.34489318667298,0.13766035,-63.867697776483965
217.56232,1.157593086914062,0.3790254698846139,1.561319157679679,101.3501294531432,0.13766035,-63.867697776483965
217.56303,1.0987704550781243,0.4373931815991639,1.5756514085803508,101.35584114962889,0.13766035,-63.867697776483965
217.56375,0.945617989257812,0.5378769646092916,1.56839412591805,101.35984097618632,0.13766035,-63.867697776483965
217.56403,0.7731784140624995,0.6390352709731913,1.526065237726692,101.35427571127076,0.13766035,-63.867697776483965
217.56425,1.332062081054687,0.6902659330961294,1.4814817138211358,101.35198794009344,0.14609316,-66.27086912483274
217.56456,1.246857002929687,0.7125095064478181,1.41626692324816,101.35243088472656,0.14609316,-66.27086912483274
217.56456,1.477081612304687,0.6924976837931889,1.3599973151131644,101.36636423072632,0.14609316,-66.27086912483274
217.56403,1.053131416992187,0.6077167349974079,1.3053113551144062,101.368851495404,0.14609316,-66.27086912483274
217.56372,1.0419772421874995,0.4529242795175659,1.2730469025588314,101.38066017656683,0.14609316,-66.27086912483274
217.56349,1.177887276367187,0.246234793771175,1.251576880303584,101.40031872123106,0.14609316,-66.27086912483274
217.56335,1.2620700156249995,0.0757805387197227,1.2433859544795918,101.42827464185272,0.15533864,-68.39367789148189
217.56291,0.945617989257812,-0.0100458525918772,1.2489457215440705,101.45988297195063,0.15533864,-68.39367789148189
217.56235,1.381744698242187,-0.0228999599860481,1.267629355014051,101.4905971517297,0.15533864,-68.39367789148189
217.56189,1.0460360800781243,0.0361323010053163,1.3046481011051634,101.48731350357842,0.15533864,-68.39367789148189
217.5616,1.003418282226562,0.1263419350038815,1.3384494601033257,101.47732756533608,0.15533864,-68.39367789148189
217.56128,0.8685458457031245,0.1812324283672242,1.381146437215346,101.47127290591648,0.1654925,-70.12787521219433
217.56102,0.9598239218749997,0.1894925593842903,1.4744338038624285,101.4603603930663,0.1654925,-70.12787521219433
217.56096,0.5287326132812495,0.1598380846131636,1.5640102139182672,101.45742847219164,0.1654925,-70.12787521219433
217.5611,1.2042697226562495,0.1032218938473803,1.6213262653141132,101.44318881827624,0.1654925,-70.12787521219433
217.56169,0.659576729492187,0.0311576543516317,1.715885731850702,101.4319424239344,0.1654925,-70.12787521219433
217.56207,1.1758578574218743,0.0642028824931357,1.8025116117743896,101.4201508852926,0.1654925,-70.12787521219433
217.56326,1.390869454101562,0.1849838498017705,1.8544711405916967,101.4097505103442,0.17692344,-71.6637546995065
217.56413,0.6017611777343745,0.3264339853852818,1.9050023147256965,101.40109976357375,0.17692344,-71.6637546995065
217.56497,1.6414035117187495,0.5209954681280118,1.9690234695861872,101.39549163866867,0.17692344,-71.6637546995065
217.56535,0.821869209960937,0.68526984105965,2.007388409220449,101.40488058370494,0.17692344,-71.6637546995065
217.56572,1.086609200195312,0.7279984740156233,2.022245134878907,101.42427206387572,0.17692344,-71.6637546995065
217.56569,1.1038363730468743,0.7048880926694373,2.020872034443191,101.44776019649474,0.17692344,-71.6637546995065
217.56573,0.988220528320312,0.637913984040648,1.9796957297519888,101.46569529265145,0.1898288,-73.04302985304679
217.56578,1.393921211914062,0.4893878168093693,1.9096895679244013,101.48977901274657,0.1898288,-73.04302985304679
217.56538,0.917206124023437,0.333278949678557,1.868471498932496,101.52230810768876,0.1898288,-73.04302985304679
217.56438,0.9009860312499997,0.2001419016845439,1.806005105445949,101.55238304785524,0.1898288,-73.04302985304679
217.56337,0.881714180664062,0.1264417826223132,1.7376167818431325,101.59362406723774,0.1898288,-73.04302985304679
217.56264,0.9344638144531244,0.0948410982969635,1.720146544399804,101.62542601836653,0.1898288,-73.04302985304679
217.56161,1.073425606445312,0.0784458580900001,1.774447386873616,101.65938147574532,0.20405772,-74.09768466669072
217.56053,0.7082675253906245,0.0439235501379363,1.8580829159955583,101.67822030621188,0.20405772,-74.09768466669072
217.5596,0.585541084960937,-0.03430257052165,1.9581525563158455,101.68382385082197,0.20405772,-74.09768466669072
217.55899,0.825928047851562,-0.1294868531938427,2.0528759375973733,101.6865186837329,0.20405772,-74.09768466669072
217.55856,1.087616280273437,-0.2448683886452237,2.185148845870469,101.68773259392243,0.20405772,-74.09768466669072
217.55865,0.904022530273437,-0.313276970338463,2.2943392748812306,101.6749691373286,0.20405772,-74.09768466669072
217.55849,1.217438057617187,-0.3324703792537471,2.3354961801265217,101.66483657163256,0.21935685,-74.87086308807649
217.55803,0.731598213867187,-0.3010328117959259,2.3326116885474875,101.65418723736023,0.21935685,-74.87086308807649
217.55801,0.970978096679687,-0.1941765488619277,2.327990513191327,101.63515954887652,0.21935685,-74.87086308807649
217.55768,0.8847506796874995,-0.0712003385810552,2.289727003859673,101.61229348438114,0.21935685,-74.87086308807649
217.55801,1.003418282226562,0.0757657298951534,2.2452967010419065,101.58364590426166,0.21935685,-74.87086308807649
217.55896,1.1322482382812495,0.2447285188960739,2.225929347166572,101.54609445842576,0.21935685,-74.87086308807649
217.56007,1.146454170898437,0.37143844923287,2.2293724751276374,101.51205026371264,0.23524718,-75.60754729366003
217.5611,1.0348666464843743,0.4451227462599062,2.2341141135136446,101.48738295364136,0.23524718,-75.60754729366003
217.56259,0.555115059570312,0.5365232836574181,2.261873914528303,101.46669672655334,0.23524718,-75.60754729366003
217.56352,0.826935127929687,0.5933175018906119,2.318128624078156,101.45467831584465,0.23524718,-75.60754729366003
217.56456,0.824920967773437,0.602028359731937,2.3614120634125486,101.45518334026178,0.23524718,-75.60754729366003
217.56538,0.919250801757812,0.6083303157775861,2.4133535717051724,101.45565754256648,0.23524718,-75.60754729366003
217.56654,1.251922920898437,0.5986509659088131,2.4560290137647893,101.45662839145164,0.25143018,-76.40914888311589
217.56735,1.169769600585937,0.5909975393749676,2.4753716245307915,101.46178429650335,0.25143018,-76.40914888311589
217.5677,0.823913887695312,0.5844727146927692,2.460516274592038,101.45341927364082,0.25143018,-76.40914888311589
217.56747,1.146454170898437,0.5773372002857661,2.428647057051134,101.4371209911235,0.25143018,-76.40914888311589
217.56657,0.9770663535156244,0.5290083740762186,2.388241998073307,101.42435210621292,0.25143018,-76.40914888311589
217.56642,1.311767891601562,0.4874815471457838,2.3388644289497846,101.4086273391698,0.25143018,-76.40914888311589
217.56625,0.5256808554687495,0.4992156467789512,2.2722697470798425,101.3898506261948,0.26782593,-77.16665823247742
217.56577,0.491211250976562,0.5521219274672478,2.2093480873822275,101.37412566151968,0.26782593,-77.16665823247742
217.56548,1.1119540488281243,0.5793323371826655,2.149668123852525,101.35348698559298,0.26782593,-77.16665823247742
217.565,1.0419772421874995,0.6053533409142885,2.086535418658695,101.32447787509156,0.26782593,-77.16665823247742
217.56436,1.0987704550781243,0.6302315674018666,2.0736953184491136,101.30249360004396,0.26782593,-77.16665823247742
217.56464,1.090668038085937,0.6419387711075153,2.124328540514965,101.31739120010818,0.26782593,-77.16665823247742
217.56467,0.2325289999999995,0.6199270275147641,2.2055584370837136,101.32114482048154,0.28423125,-77.87135692024638
217.56506,1.1078952109374995,0.5957201379945909,2.325315085727438,101.31645659510656,0.28423125,-77.87135692024638
217.56477,0.6098788535156245,0.6027387969270941,2.436798697660182,101.31365167951924,0.28423125,-77.87135692024638
217.56458,1.072418526367187,0.6320243761996833,2.5003533714153057,101.31864944470934,0.28423125,-77.87135692024638
217.56392,1.075439766601562,0.6654321746593546,2.516580779996913,101.33074311660742,0.28423125,-77.87135692024638
217.56361,1.068359688476562,0.7070416403173824,2.4629712492899163,101.3381528578476,0.28423125,-77.87135692024638
217.56332,1.4131930624999995,0.7150433400674439,2.3630520117293203,101.33518151936252,0.30091187,-78.52101906462578
217.56306,1.310760811523437,0.6663341633295269,2.256750199858361,101.33598506002882,0.30091187,-78.52101906462578
217.56306,1.5988009726562495,0.5772219705646942,2.1708997504259577,101.33823272874416,0.30091187,-78.52101906462578
217.56364,1.2823642050781243,0.4804845621578729,2.1396785725454794,101.34087327920432,0.30091187,-78.52101906462578
217.56403,1.0328524863281243,0.3804376658516231,2.131121618664958,101.34670123413385,0.30091187,-78.52101906462578
217.56483,1.471008614257812,0.2632031452823367,2.149523756120291,101.34986847721945,0.30091187,-78.52101906462578
217.56589,0.933441475585937,0.1812524556236195,2.199149308774289,101.3556575269269,0.31739205,-79.12838890525016
217.56673,1.5592501914062495,0.1622249433127374,2.2192364720294284,101.35880682788992,0.31739205,-79.12838890525016
217.56781,0.728546456054687,0.2024779485986432,2.1904526717149944,101.3595813702952,0.31739205,-79.12838890525016
217.56924,0.7812960898437495,0.318552047021523,2.1127230213761505,101.3535723963476,0.31739205,-79.12838890525016
217.57114,0.836059883789062,0.4828033585279599,1.982575361082032,101.36699105471604,0.31739205,-79.12838890525016
217.57191,1.082550362304687,0.5987199745774706,1.8688545062131905,101.3678918211194,0.31739205,-79.12838890525016
217.57254,0.753906563476562,0.636285690944192,1.7748746000475375,101.35424504455992,0.33316,-79.743716175854
217.57314,1.386841133789062,0.6097675369116201,1.747992393298255,101.3473582159902,0.33316,-79.743716175854
217.57396,1.0561679160156243,0.564967687846857,1.771454285001562,101.3440542590983,0.33316,-79.743716175854
217.57436,1.130218819335937,0.5492958999097163,1.7716386850304933,101.34559618481052,0.33316,-79.743716175854
217.57472,0.993286446289062,0.5577425215806688,1.7501294628806794,101.3464568334349,0.33316,-79.743716175854
217.57559,0.8614352499999995,0.553439704440361,1.7369828245405587,101.35890069541176,0.33316,-79.743716175854
217.57622,0.739715889648437,0.5456703210363962,1.745434188560771,101.37593824951442,0.3478998,-80.38017869822029
217.57733,1.176880196289062,0.5501971114753837,1.7695390704093883,101.38725709990445,0.3478998,-80.38017869822029
217.57724,0.650451973632812,0.5536244727274894,1.8225317403896977,101.40084867835046,0.3478998,-80.38017869822029
217.57663,1.1971591269531243,0.5302568612723422,1.8891192463807085,101.4241663854118,0.3478998,-80.38017869822029
217.57578,0.5307467734374995,0.4798797097848516,1.9326795538360235,101.44667629551842,0.3478998,-80.38017869822029
217.57619,1.1494906699218743,0.4401732005828024,1.97176131030937,101.47636416348416,0.3478998,-80.38017869822029
217.57672,1.186004952148437,0.4040274498109557,2.019616677761233,101.51119059754532,0.361977,-80.98387032971583
217.57733,1.1281894003906243,0.3909485179484316,2.0284175660520205,101.53053246288664,0.361977,-80.98387032971583
217.5771,0.9314120566406244,0.4151455081897431,1.9971655342182724,101.5429469461339,0.361977,-80.98387032971583
217.57637,0.7843478476562495,0.4731426823345472,1.9484338923041744,101.53548570592078,0.361977,-80.98387032971583
217.57568,1.067322090820312,0.5525981495394545,1.9045155066876116,101.5125011896778,0.361977,-80.98387032971583
217.57562,1.536926583007812,0.6774328836814199,1.861031161021404,101.49347284260652,0.361977,-80.98387032971583
217.57576,0.7772372519531245,0.7981654392015971,1.806590213835176,101.47085465901986,0.3757854,-81.5889150656223
217.57553,0.811737374023437,0.8566840851113179,1.7492836017580056,101.44062661809303,0.3757854,-81.5889150656223
217.57513,0.821869209960937,0.8458502076258309,1.7118390200346234,101.4187836507656,0.3757854,-81.5889150656223
217.5749,1.7306369101562495,0.8040529707971941,1.7261064409476394,101.40639534254086,0.3757854,-81.5889150656223
217.57498,0.997345284179687,0.784142101902949,1.823269402624556,101.38773388679962,0.3757854,-81.5889150656223
217.57553,1.7387545859374995,0.7982079894631218,1.921526928694244,101.37371274740627,0.3757854,-81.5889150656223
217.57715,1.562286690429687,0.8436111968427317,2.0384685091375983,101.3563865211184,0.3895342,-82.27363045286508
217.57808,0.6869662558593745,0.8878607420163429,2.148922222613931,101.33466902442464,0.3895342,-82.27363045286508
217.57954,1.249908760742187,0.9283080280643056,2.2199801713434,101.31245473595764,0.3895342,-82.27363045286508
217.58076,0.755951241210937,0.9496191382352512,2.229146015605944,101.30188599978165,0.3895342,-82.27363045286508
217.58238,1.168762520507812,0.9768296708649886,2.1926612038744806,101.29187382302908,0.3895342,-82.27363045286508
217.58316,0.6068270957031245,0.9886170762819882,2.139727986721848,101.29168643422852,0.3895342,-82.27363045286508
217.58357,1.407104805664062,1.0001977356195428,2.0854594699172004,101.29761617549649,0.40343866,-82.99968104047863
217.58427,1.1241305624999995,1.024005447105664,2.0581855480782747,101.30810637690496,0.40343866,-82.99968104047863
217.58437,1.319885567382812,1.0654504716580069,2.052637941988537,101.3186581140241,0.40343866,-82.99968104047863
217.58408,0.941559151367187,1.109886782131857,2.069834316912082,101.31137622903437,0.40343866,-82.99968104047863
217.58403,1.4304354941406243,1.1417982853074913,2.0820935761174897,101.29083503123856,0.40343866,-82.99968104047863
217.58388,0.490173653320312,1.1409393567487385,2.0582291695768298,101.2701338137048,0.40343866,-82.99968104047863
217.58377,1.151520088867187,1.0744044830984012,2.059255655720916,101.26548333612332,0.4173855,-83.75036959341693
217.58397,0.925323799804687,0.9965721815338237,2.055011838302024,101.27793719007944,0.4173855,-83.75036959341693
217.58446,1.3624728476562495,0.915027038229688,2.007550525549487,101.29204814931128,0.4173855,-83.75036959341693
217.585,0.904022530273437,0.8887454603433436,1.9463059245511931,101.28550573472012,0.4173855,-83.75036959341693
217.58556,1.3503268515624995,0.9188828986845022,1.8600644883606836,101.29020703938308,0.4173855,-83.75036959341693
217.58664,1.5714267050781243,0.963170358467994,1.77396786052767,101.28307826234578,0.4173855,-83.75036959341693
217.58813,1.1231234824218743,0.9913438193218712,1.7324611631076492,101.2660257838102,0.43131924,-84.48529113407241
217.58948,0.8796847617187495,0.9763984387974688,1.755504256110397,101.25941373899816,0.43131924,-84.48529113407241
217.59056,0.289337471679687,0.93152366053862,1.8212092717883612,101.26136158770474,0.43131924,-84.48529113407241
217.5918,0.8573764121093745,0.8377810205727365,1.907714085881961,101.2577744996984,0.43131924,-84.48529113407241
217.59288,0.7711642539062495,0.8399575385098791,2.018971796891345,101.2648145924823,0.43131924,-84.48529113407241
217.59436,1.074432686523437,0.934119568408197,2.158675100531874,101.282049372963,0.43131924,-84.48529113407241
217.59544,0.5145419394531245,1.02077047555525,2.2596845079658374,101.29903285942235,0.44519123,-85.17891568548968
217.59636,0.659576729492187,1.0817863449558196,2.324683785628562,101.29723163260785,0.44519123,-85.17891568548968
217.59625,0.6443637167968745,1.1204807526249847,2.3293428779147267,101.29931754699972,0.44519123,-85.17891568548968
217.59613,1.543030098632812,1.1190362134125815,2.3025700737573014,101.29937728533172,0.44519123,-85.17891568548968
217.59622,1.5338900839843743,1.0330221858845634,2.1917310780372885,101.3031773615242,0.44519123,-85.17891568548968
217.59512,1.5643161093749995,0.92298089185572,2.0117153919904287,101.3072366451012,0.44519123,-85.17891568548968
217.59381,0.8878024374999995,0.8665561075219406,1.874289729080108,101.31540078899717,0.45922938,-85.80687695973755
217.59248,1.2823642050781243,0.8434832237525246,1.809011013765473,101.33889255966189,0.45922938,-85.80687695973755
217.59122,1.4203036582031243,0.8595860240872238,1.743333532950602,101.33692440776817,0.45922938,-85.80687695973755
217.58977,1.216430977539062,0.9197132842431482,1.7058100099629874,101.3180728412258,0.45922938,-85.80687695973755
217.58873,1.748901680664062,1.0067999647972277,1.7379071845557166,101.3174787728566,0.45922938,-85.80687695973755
217.58794,1.0257418906249995,1.1648902643973107,1.8550698055035688,101.30112616459895,0.45922938,-85.80687695973755
217.58713,0.997345284179687,1.3355832678877873,2.028875590751521,101.30007831845666,0.4730662,-86.38791281721072
217.58661,1.3624728476562495,1.4520315290832215,2.1810544016510955,101.28721423902172,0.4730662,-86.38791281721072
217.58667,1.4344943320312495,1.4950127659288814,2.288990757801212,101.28691368181632,0.4730662,-86.38791281721072
217.58693,1.1920932089843743,1.4805299982073454,2.365867403736501,101.31958578188006,0.4730662,-86.38791281721072
217.58739,1.160644844726562,1.3993685605880255,2.35147128292833,101.3671420442808,0.4730662,-86.38791281721072
217.5881,1.694122627929687,1.300168328808924,2.282365401576431,101.38789517915184,0.4730662,-86.38791281721072
217.58875,1.0389254843749995,1.1685349495460926,2.1370368008518748,101.40844128814034,0.48669696,-86.9428423458584
217.5886,1.1068881308593743,1.0134373553349845,1.9876444862225575,101.42110636114676,0.48669696,-86.9428423458584
217.58731,0.308624581054687,0.772990604038485,1.8900582360024616,101.41683510168365,0.48669696,-86.9428423458584
217.5863,1.4314425742187495,0.5250395752203876,1.8377577011028787,101.42294095467852,0.48669696,-86.9428423458584
217.58533,1.0277865683593743,0.247558458881917,1.7702623099194246,101.448412441272,0.48669696,-86.9428423458584
217.58476,0.6311801230468745,-0.0141072942236512,1.6694315258331187,101.48835355736963,0.48669696,-86.9428423458584
217.58421,1.0318454062499995,-0.1776901821939012,1.5988888556067946,101.50492780071004,0.49922493,-87.39229075096152
217.58351,0.9780734335937497,-0.2851847704758976,1.5106720184988935,101.51582647762584,0.49922493,-87.39229075096152
217.58243,0.395843819335937,-0.304637865766215,1.3661442174630012,101.51783423313252,0.49922493,-87.39229075096152
217.58176,1.173828438476562,-0.2131523354170321,1.2251957976335304,101.5182296592978,0.49922493,-87.39229075096152
217.58128,1.2529452597656243,-0.0700328996708806,1.115761509599538,101.52775635086104,0.49922493,-87.39229075096152
217.58093,0.7853549277343745,0.1618751096531649,0.9625418198364646,101.53585621618949,0.49922493,-87.39229075096152
217.58078,1.606903389648437,0.4185511316819799,0.8878058970931372,101.54240892019776,0.5098774,-87.80122557458614
217.58037,1.5916903769531243,0.6809380968960725,0.9318799617594612,101.54733437014391,0.5098774,-87.80122557458614
217.58041,1.306701973632812,0.8881661651347688,1.063996179689763,101.54893909017116,0.5098774,-87.80122557458614
217.58011,0.975036934570312,1.1286305834807695,1.241869008866262,101.54713766742016,0.5098774,-87.80122557458614
217.58034,0.893890694335937,1.3567268119133882,1.3705095300551449,101.55899939225894,0.5098774,-87.80122557458614
217.5812,1.015594795898437,1.491890156225551,1.446544193501286,101.5706208168348,0.5186829,-88.34217471341374
217.58197,1.0287936484374995,1.5633879341004626,1.4756307759046554,101.57474724355792,0.5186829,-88.34217471341374
217.58295,1.2042697226562495,1.5580960783541746,1.4275904103625816,101.59490191862896,0.5186829,-88.34217471341374
217.58368,1.212372139648437,1.5417422057773555,1.3618435093189372,101.61885911688344,0.5186829,-88.34217471341374
217.58427,0.979095772460937,1.50076189684959,1.3103936124402764,101.64514131537102,0.5186829,-88.34217471341374
217.58453,1.0308078085937495,1.4176399249991356,1.2661914122123232,101.67866329298384,0.5186829,-88.34217471341374
217.58514,0.9557650839843744,1.3041302235954908,1.1932636670471026,101.70476392688572,0.5255255,-88.9822027575176
217.5855,0.9506991660156244,1.1971298045515857,1.10320240236907,101.72361556275682,0.5255255,-88.9822027575176
217.58577,1.076446846679687,1.0846329075053538,0.9840985102783488,101.74321672546444,0.5255255,-88.9822027575176
217.58556,1.075439766601562,0.9710363220549258,0.8779814436790621,101.76349794681502,0.5255255,-88.9822027575176
217.5853,1.0338595664062495,0.8554362452912,0.7761093141156988,101.77406529809204,0.5255255,-88.9822027575176
217.5851,0.6271212851562495,0.7520366690422451,0.7089833352218106,101.7758359752886,0.5255255,-88.9822027575176
217.58517,0.9537204062499997,0.6239440119612543,0.646602607554861,101.77920859045598,0.53058535,-89.62819201363826
217.58556,1.6393588339843743,0.5192482346187229,0.6338550467544545,101.7879632000156,0.53058535,-89.62819201363826
217.5853,1.217438057617187,0.4638510997370927,0.649108680283102,101.79275052304304,0.53058535,-89.62819201363826
217.58409,1.2042697226562495,0.4525625597929317,0.6582179651269346,101.7960594865331,0.53058535,-89.62819201363826
217.58228,1.5906832968749995,0.538166023267408,0.6306795090417009,101.79692307766814,0.53058535,-89.62819201363826
217.58089,0.8736117636718745,0.6523680657490428,0.5986180831378425,101.78799658960156,0.53058535,-89.62819201363826
217.5798,1.465942696289062,0.7667406697725357,0.6157436922218521,101.77091942537665,0.5350851,-90.2179215656936
217.57858,1.1890414511718743,0.8842739746137623,0.6255880444190471,101.7415937921977,0.5350851,-90.2179215656936
217.57735,0.684936836914062,0.996180234617106,0.6524083279833669,101.70516548898362,0.5350851,-90.2179215656936
217.57608,0.348175362304687,1.1089236213834024,0.686356623665328,101.67881545313244,0.5350851,-90.2179215656936
217.57495,1.1961520468749995,1.2524581770617984,0.7348043913772722,101.65326191966793,0.5350851,-90.2179215656936
217.5739,1.2144015585937495,1.3778763940146364,0.8146369258448031,101.65468644295692,0.5350851,-90.2179215656936
217.57303,1.0399325644531243,1.441080435057321,0.9427244513592552,101.65475435425653,0.53990835,-90.7802830783732
217.57208,0.6484225546874995,1.380903456975676,1.057345776841612,101.65562547627816,0.53990835,-90.7802830783732
217.57158,1.096741036132812,1.2413593900292934,1.173125241595789,101.62604417707196,0.53990835,-90.7802830783732
217.57077,0.6829074179687495,1.086736319283148,1.212745593746734,101.59023220870417,0.53990835,-90.7802830783732
217.57054,1.2783053671874995,0.9455632248671152,1.1763991201385982,101.56686876171943,0.53990835,-90.7802830783732
217.57033,1.165710762695312,0.8295699207260678,1.128594491253626,101.5371572146984,0.53990835,-90.7802830783732
217.57016,1.0216830527343743,0.7306463970038651,1.0985865450224603,101.49458680253952,0.5454662,-91.25857773366538
217.57024,0.6484225546874995,0.6320983772241803,1.077211120813132,101.47259947876584,0.5454662,-91.25857773366538
217.57036,1.176880196289062,0.5710971260686755,1.064063895002624,101.4586987020742,0.5454662,-91.25857773366538
217.57077,1.415222481445312,0.4886862550164895,1.1026718607556,101.46884044628578,0.5454662,-91.25857773366538
217.57132,1.0084994589843743,0.4168290540787476,1.163146497670007,101.48466411627116,0.5454662,-91.25857773366538
217.57217,1.2022250449218743,0.3816283253893323,1.2295224589507447,101.48153792251556,0.5454662,-91.25857773366538
217.5732,1.130218819335937,0.382479584714863,1.3075784426625867,101.48614007074325,0.5515654,-91.6036774095845
217.5739,0.7295687949218745,0.4415378100875486,1.3450410101062455,101.48651192234736,0.5515654,-91.6036774095845
217.57451,1.2448275839843743,0.5056841368257742,1.3376537075307648,101.4726915984821,0.5515654,-91.6036774095845
217.57515,1.4821627890624995,0.5291517440111723,1.3225926282078295,101.4591484948142,0.5515654,-91.6036774095845
217.57571,1.4273837363281243,0.5002092368374588,1.3365255447348126,101.44774941937612,0.5515654,-91.6036774095845
217.57617,1.139343575195312,0.4544478437939753,1.3421571211697907,101.45828603190222,0.5515654,-91.6036774095845
217.57635,1.208313301757812,0.4050430488942923,1.350148577367663,101.47265783982876,0.557902,-91.8541626459849
217.57677,1.554169014648437,0.3574173148554594,1.379679813977214,101.48400728236874,0.557902,-91.8541626459849
217.57732,0.897949532226562,0.3134789346195381,1.4074077315838536,101.48063359193875,0.557902,-91.8541626459849
217.57799,1.004455879882812,0.2480126695910213,1.4528850405013392,101.48082267275844,0.557902,-91.8541626459849
217.57866,1.6434176718749995,0.1935491362707335,1.4961176352986685,101.48987305976796,0.557902,-91.8541626459849
217.57982,1.323944405273437,0.1419611462190396,1.5332226358905057,101.4957031447412,0.557902,-91.8541626459849
217.58072,0.650451973632812,0.1156242213096854,1.5407119637235172,101.49776575761932,0.56433153,-92.01719177408717
217.58104,0.7853549277343745,0.1296850299740539,1.535643793273709,101.49635418625697,0.56433153,-92.01719177408717
217.58116,0.6017611777343745,0.1668847658197492,1.5409241353352945,101.4902403342028,0.56433153,-92.01719177408717
217.5807,0.9658969199218744,0.2174229519514536,1.5489094597907762,101.48905610149244,0.56433153,-92.01719177408717
217.58011,1.170776680664062,0.2866746921373137,1.536287920895358,101.4859380449492,0.56433153,-92.01719177408717
217.57986,1.3736422812499995,0.3565106570549951,1.4986677409220392,101.48622706647254,0.56433153,-92.01719177408717
217.57936,1.3645175253906243,0.4250047150967305,1.4487560433744773,101.48088340787676,0.57109725,-92.10770913659864
217.5789,1.321899727539062,0.4495159757115592,1.4079617860211795,101.47062860960544,0.57109725,-92.10770913659864
217.57881,1.2965548789062495,0.449932637847636,1.3791909732543888,101.46198042516816,0.57109725,-92.10770913659864
217.57872,1.2062838828124995,0.4431807778199151,1.3443656964024944,101.46894203697713,0.57109725,-92.10770913659864
217.57872,1.003418282226562,0.4383285515912076,1.3080901169401475,101.47761577801344,0.57109725,-92.10770913659864
217.578,0.9658969199218744,0.4196771211879461,1.2898918985744148,101.48242362821092,0.57109725,-92.10770913659864
217.57729,1.0642855917968743,0.3893276457601318,1.2969564350081637,101.48879726942184,0.5782122,-92.13575246313756
217.57594,0.899963692382812,0.3486613261135491,1.3228044580407974,101.51131629224618,0.5782122,-92.13575246313756
217.57562,1.245849922851562,0.3148653754228659,1.367159719661621,101.53744088418811,0.5782122,-92.13575246313756
217.57562,0.674805000976562,0.2810159372184206,1.3850004662670636,101.5598477596468,0.5782122,-92.13575246313756
217.57552,0.9517062460937497,0.2537360059090767,1.4069090004524862,101.56870796076213,0.5782122,-92.13575246313756
217.57533,0.851288155273437,0.2679379064694394,1.4215524050826802,101.56024727772028,0.5782122,-92.13575246313756
217.57533,0.830993965820312,0.2695822567431857,1.399654755396882,101.55262762346322,0.5854322,-92.08975578390036
217.57565,1.169769600585937,0.2247885314056063,1.3772844296416855,101.55529858735608,0.5854322,-92.08975578390036
217.57509,1.547058418945312,0.1465552344118042,1.3742437917544112,101.53548538341056,0.5854322,-92.08975578390036
217.57462,0.672760323242187,0.0718545940926887,1.3524313358337514,101.50346470557383,0.5854322,-92.08975578390036
217.57402,0.8492587363281245,0.0502133130844441,1.333835348241461,101.48469681685462,0.5854322,-92.08975578390036
217.57292,1.394928291992187,0.0554026893116422,1.3172792527000614,101.47139530892696,0.5854322,-92.08975578390036
217.57173,0.819855049804687,0.051160725840442,1.2930039370382966,101.46486519018974,0.5921838,-91.97183534011594
217.57005,0.847229317382812,0.016184193351703,1.261745930620578,101.47026837894384,0.5921838,-91.97183534011594
217.56935,1.5065158164062495,-0.0252747713719998,1.2290360240039564,101.46892179823436,0.5921838,-91.97183534011594
217.5687,1.538971260742187,-0.1123721255798716,1.2085667773462894,101.45767920005429,0.5921838,-91.97183534011594
217.56787,1.384796456054687,-0.208332584346611,1.2143690141007932,101.42574331518304,0.5921838,-91.97183534011594
217.56833,0.822876290039062,-0.2704819337744177,1.2117438286420912,101.3949088448262,0.5921838,-91.97183534011594
217.56866,0.746826485351562,-0.2853292974239798,1.2090493218149103,101.35929599472334,0.5980538,-91.7970500530606
217.5693,1.1200717246093743,-0.2470461056859346,1.2585868708353785,101.32671401287136,0.5980538,-91.7970500530606
217.56996,1.6586459433593743,-0.2127666602044007,1.3683184141112736,101.29861899157147,0.5980538,-91.7970500530606
217.57092,1.2722018515624995,-0.1885436105218455,1.45848162092656,101.28007295545824,0.5980538,-91.7970500530606
217.57198,1.268158272460937,-0.1428177368562411,1.533082162367913,101.24789789352164,0.5980538,-91.7970500530606
217.57233,0.634216622070312,-0.0783584828827916,1.5705225666759646,101.22091533643751,0.5980538,-91.7970500530606
217.57251,1.510559395507812,-0.0197296519748875,1.580047281666265,101.1908151742383,0.60312766,-91.59205941255604
217.57233,1.2722018515624995,0.0985008271813051,1.5477898102266443,101.14370589209682,0.60312766,-91.59205941255604
217.57172,0.732605293945312,0.2414628637296977,1.493523983875499,101.10447416857367,0.60312766,-91.59205941255604
217.57051,0.8715670859374995,0.3519408731396349,1.446087880968571,101.06195542681724,0.60312766,-91.59205941255604
217.56969,1.090668038085937,0.4365782641535193,1.4047618196018348,101.03458814388742,0.60312766,-91.59205941255604
217.56908,1.1231234824218743,0.4988307242516552,1.3463273652083452,101.00531503500434,0.60312766,-91.59205941255604
217.56851,0.9821322714843744,0.547264254597356,1.2977053044899505,100.9991862810946,0.60741884,-91.39502166252664
217.56816,0.9547580039062497,0.586114869806946,1.299749371739905,101.00671704587864,0.60741884,-91.39502166252664
217.56902,0.981109932617187,0.5574723542864796,1.278404833968953,101.04388367089628,0.60741884,-91.39502166252664
217.57054,1.2884372031249995,0.4957833771564519,1.238234731073206,101.08309246877133,0.60741884,-91.39502166252664
217.57233,0.8827365195312495,0.4246236901130172,1.232655327995591,101.13578669030238,0.60741884,-91.39502166252664
217.57404,1.740784004882812,0.3616989164030463,1.2340079317249957,101.17474717977144,0.60741884,-91.39502166252664
217.57655,1.3604586874999995,0.2767809249933609,1.2264743670906972,101.2291052075552,0.61105996,-91.16859256942251
217.5785,0.3390353476562495,0.1883764054332815,1.232330159475148,101.265107545123,0.61105996,-91.16859256942251
217.57928,0.5074313437499995,0.0914251424429154,1.2381830613393403,101.29519924758164,0.61105996,-91.16859256942251
217.58006,1.4426120078124995,-0.0304708392231654,1.2304608162896276,101.34278266874485,0.61105996,-91.16859256942251
217.58093,0.9648898398437497,-0.1180011456060909,1.191103684726198,101.37347931917982,0.61105996,-91.16859256942251
217.58157,1.220489815429687,-0.2163715554060618,1.11813087013704,101.4044391718245,0.61105996,-91.16859256942251
217.58182,0.7873996054687495,-0.3518039654182828,1.0718927556355125,101.41696277534716,0.6147743,-90.82363257631272
217.58192,1.4284213339843743,-0.5822531237428222,1.034709417821517,101.42189325254778,0.6147743,-90.82363257631272
217.58157,0.753906563476562,-0.8611519986683658,1.0134499375072312,101.43045890487876,0.6147743,-90.82363257631272
217.58102,1.217438057617187,-1.1349327456601548,1.0268255346461697,101.43569638452747,0.6147743,-90.82363257631272
217.58043,1.477081612304687,-1.424163285810312,1.0766119346509282,101.41385689883506,0.6147743,-90.82363257631272
217.58109,0.8634494101562495,-1.6070977852526542,1.1608711265923175,101.36733374845495,0.6147743,-90.82363257631272
217.58186,1.011535958007812,-1.6574341586167587,1.2866943235648671,101.35103170590236,0.6191185,-90.3041858226882
217.58241,0.7021945273437495,-1.5707291398861447,1.4106977151893598,101.33914683166653,0.6191185,-90.3041858226882
217.58308,1.5166476523437495,-1.3570645285304674,1.5533462051993918,101.31304634171954,0.6191185,-90.3041858226882
217.58415,1.543030098632812,-1.113254979482489,1.703224967281046,101.28723566175232,0.6191185,-90.3041858226882
217.58514,1.544037178710937,-0.8951504817825282,1.8032761866120672,101.2746280532477,0.6191185,-90.3041858226882
217.58606,1.940582588867187,-0.6577402521164847,1.9007569495840877,101.25947096705936,0.6191185,-90.3041858226882
217.58669,1.249908760742187,-0.5357960292853328,1.9505979896906935,101.23674931113648,0.62418854,-89.69408012834282
217.58664,1.620086983398437,-0.5223597514423453,1.9171298180234384,101.22122251589546,0.62418854,-89.69408012834282
217.58615,1.255981758789062,-0.564550070194992,1.8436487187622717,101.20738402283877,0.62418854,-89.69408012834282
217.58528,1.537933663085937,-0.6478127532175586,1.7461985168540088,101.20438425861023,0.62418854,-89.69408012834282
217.58376,1.148468331054687,-0.7336364317836559,1.6418418859524562,101.19981697162233,0.62418854,-89.69408012834282
217.58224,1.3787081992187495,-0.766303963433996,1.5736890582499543,101.19741760253032,0.62418854,-89.69408012834282
217.57993,1.238739327148437,-0.7346189245070059,1.495453539328793,101.20878434606573,0.6292724,-89.11519535916247
217.57811,1.1180575644531243,-0.650827065701955,1.3995557220659092,101.22134567132694,0.6292724,-89.11519535916247
217.57779,1.6454623496093743,-0.5691980613852773,1.293333293081895,101.226415296113,0.6292724,-89.11519535916247
217.57779,1.549103096679687,-0.4820378351618957,1.149722978645109,101.23450063243104,0.6292724,-89.11519535916247
217.57758,1.4395602499999995,-0.3635913970629658,1.0445617171997943,101.24705580579752,0.6292724,-89.11519535916247
217.57697,1.3381503378906243,-0.1914698971081602,0.8970631875987681,101.22834329952089,0.6292724,-89.11519535916247
217.57661,1.2691806113281243,-0.0776568182644721,0.7762972565179325,101.2039634106382,0.633453,-88.6064498085537
217.57632,1.5805514609374995,0.0197632604860815,0.7099836721807037,101.17122553331431,0.633453,-88.6064498085537
217.5757,0.8411410605468745,0.0252436490828508,0.707912048502366,101.13189770174974,0.633453,-88.6064498085537
217.57497,1.5095370566406243,-0.0960163728864806,0.7514019253316649,101.10114511585604,0.633453,-88.6064498085537
217.57503,1.1981662070312495,-0.3215722005939584,0.891132135152743,101.0637739160704,0.633453,-88.6064498085537
217.57642,1.172821358398437,-0.558155771097992,1.0335389598309912,101.07337534504384,0.633453,-88.6064498085537
217.57825,1.1322482382812495,-0.7058093946609237,1.0461988439737857,101.06537231825628,0.63652307,-88.23502320605685
217.57968,1.1717990195312495,-0.6740111146626645,0.9998258454101028,101.0235090737687,0.63652307,-88.23502320605685
217.58073,1.7235568320312495,-0.531090029772391,0.8622272821736515,100.98463845208244,0.63652307,-88.23502320605685
217.58167,1.2539523398437495,-0.3647976210238278,0.7053761356737068,100.94819875021273,0.63652307,-88.23502320605685
217.58192,1.026764229492187,-0.2185621418665983,0.6540767545621133,100.94110173884164,0.63652307,-88.23502320605685
217.58202,1.4385531699218743,-0.0827282169114053,0.667055349260793,100.9485278331104,0.63841563,-88.0538814935176
217.5819,1.4781039511718743,0.066495964195234,0.7521226979819193,100.95830123101246,0.63841563,-88.0538814935176
217.5817,1.5085299765624995,0.2349493010175205,0.9031286407896628,100.96815958731686,0.63841563,-88.0538814935176
217.58145,1.857422188476562,0.4482364451441523,1.0537825797476212,100.98958394826175,0.63841563,-88.0538814935176
217.58072,1.949707344726562,0.790428299116128,1.2044007335444191,101.00082573214176,0.63841563,-88.0538814935176
217.58035,1.5024569785156243,1.181248120850633,1.2278643897104031,101.02332914305438,0.63841563,-88.0538814935176
217.58025,1.5764926230468743,1.4861088229694666,1.195018640727754,101.05250647904111,0.64013404,-88.16244853736876
217.57999,1.603882149414062,1.6911188883345558,1.1588333979657122,101.08993742260748,0.64013404,-88.16244853736876
217.57988,1.8695834433593743,1.781111038699879,1.1570930740492318,101.11716327410902,0.64013404,-88.16244853736876
217.57993,1.5673678671874995,1.807807974968336,1.1749423799180123,101.15146368888682,0.64013404,-88.16244853736876
217.57979,1.224548653320312,1.739058053739218,1.174581421401891,101.18033776997784,0.64013404,-88.16244853736876
217.58026,1.4405673300781243,1.6124974691116198,1.1823025124053204,101.21481872511312,0.64013404,-88.16244853736876
217.58115,1.4517367636718743,1.4653297007370347,1.1955140255009535,101.25208608429368,0.6434399,-88.51430473122451
217.58255,1.8858187949218743,1.3685131495469025,1.222627701967805,101.26660035064477,0.6434399,-88.51430473122451
217.58382,0.8107150351562495,1.2927508945435071,1.2678532832058362,101.28290783857982,0.6434399,-88.51430473122451
217.58505,1.5004123007812495,1.3064257218363335,1.379281678221287,101.3057541420964,0.6434399,-88.51430473122451
217.5864,1.602844551757812,1.398385296917558,1.496822296567648,101.32784776065222,0.6434399,-88.51430473122451
217.58792,1.061249092773437,1.5663808056841777,1.6102185583251765,101.35506890050274,0.6434399,-88.51430473122451
217.58908,0.913147286132812,1.7370078754059397,1.6637705980739428,101.37265159966095,0.6490586,-88.98232837860412
217.59047,1.7854159628906243,1.842277326581155,1.6481111336562742,101.40534182593451,0.6490586,-88.98232837860412
217.59163,1.395965889648437,1.8833243199803755,1.6050932941290943,101.42370915120313,0.6490586,-88.98232837860412
217.59251,0.5845187460937495,1.9227856418444176,1.5532297725007504,101.43311748480086,0.6490586,-88.98232837860412
217.59349,1.333069161132812,1.897259411819246,1.5220932780359584,101.4214537329049,0.6490586,-88.98232837860412
217.59477,1.471008614257812,1.83758177750823,1.4817015205758362,101.4141857125193,0.6490586,-88.98232837860412
217.59578,1.2752536093749995,1.7738820062764546,1.4610262970499888,101.40478067938602,0.6564882,-89.57301342258351
217.59648,0.823913887695312,1.6432935102721318,1.4604382060342371,101.40039796264352,0.6564882,-89.57301342258351
217.59679,1.330017403320312,1.417072032003958,1.4333378795494198,101.40229779275975,0.6564882,-89.57301342258351
217.5971,1.234680489257812,1.1928610450596049,1.4494094982479486,101.42901324116175,0.6564882,-89.57301342258351
217.59723,1.173828438476562,0.9913476771544828,1.4885372860268054,101.46886973241207,0.6564882,-89.57301342258351
217.59769,2.198181465820312,0.8469770155282342,1.6081150959103487,101.4922966229188,0.6564882,-89.57301342258351
217.598,1.112976387695312,0.7426153694041258,1.7910329790786792,101.5032238784317,0.6644603,-90.22639305530694
217.59807,0.7975314414062495,0.7498650101187598,1.9783103583105983,101.5104998251795,0.6644603,-90.22639305530694
217.59874,1.606903389648437,0.8708714377770854,2.017521417672677,101.5488550267966,0.6644603,-90.22639305530694
217.5996,1.871628121093749,1.072641885768302,1.9647798898523303,101.57869846505127,0.6644603,-90.22639305530694
217.60075,1.0551608359374995,1.4031081659667326,1.769904782699918,101.57738326945228,0.6644603,-90.22639305530694
217.6013,1.225555733398437,1.7500477188805343,1.4901658031188183,101.55906064819006,0.6644603,-90.22639305530694
217.60129,1.1758578574218743,2.080006585285256,1.2334019983539644,101.53345627008626,0.6724693,-90.94532710314854
217.60133,1.2620700156249995,2.2752254518840656,1.0988698388491511,101.50714262419984,0.6724693,-90.94532710314854
217.60143,1.477081612304687,2.4435385120651123,1.1024661459399836,101.45105820617673,0.6724693,-90.94532710314854
217.60103,1.372619942382812,2.491320477885116,1.165317084406417,101.40409678346492,0.6724693,-90.94532710314854
217.60052,1.466949776367187,2.5132327816436657,1.251601769452913,101.37521883097013,0.6724693,-90.94532710314854
217.60057,1.9395602499999995,2.493383256835628,1.3507064656442618,101.36183488180949,0.6724693,-90.94532710314854
217.60094,1.759033516601562,2.434957974802185,1.4281284958828575,101.35308184228484,0.68031627,-91.78945700264455
217.60107,1.130218819335937,2.4131102122655896,1.456973622711749,101.37352759235344,0.68031627,-91.78945700264455
217.60146,1.444641426757812,2.3819204669145795,1.410781604867427,101.38294016756625,0.68031627,-91.78945700264455
217.6018,1.1150058066406243,2.2716283508618,1.341253824440356,101.38069085748648,0.68031627,-91.78945700264455
217.6024,1.7844088828124995,2.071859913211971,1.3161496570911593,101.37219469923,0.68031627,-91.78945700264455
217.60252,1.6687777792968743,1.9913262252411292,1.3369670056413412,101.3622240608004,0.68031627,-91.78945700264455
217.60236,1.385803536132812,2.009419588419553,1.4110224533524716,101.37570052535244,0.6880902,-92.67263775087169
217.60205,1.2864230429687495,2.052955427391269,1.5004051502868478,101.3988498903965,0.6880902,-92.67263775087169
217.60196,1.5125888144531243,2.069352103898083,1.5645134190962129,101.43407496593926,0.6880902,-92.67263775087169
217.60175,1.8675692832031243,2.078548110950275,1.672833010886102,101.461394051945,0.6880902,-92.67263775087169
217.6017,1.310760811523437,2.0301341460840425,1.830290934117902,101.5004389870624,0.6880902,-92.67263775087169
217.60231,1.320892647460937,1.9749187180180396,1.949653226950886,101.52146216468267,0.6880902,-92.67263775087169
217.6029,1.7468722617187495,1.9412328322323544,2.018141473391037,101.54913522940308,0.69574225,-93.55815080337857
217.60402,1.950729683593749,1.884280407715032,2.016166324698212,101.56744648408264,0.69574225,-93.55815080337857
217.60542,1.7387545859374995,1.7900044934152213,1.9025673201838256,101.58621169497636,0.69574225,-93.55815080337857
217.60635,1.4943393027343743,1.6592675470265283,1.6507769303346629,101.61430420728578,0.69574225,-93.55815080337857
217.60747,1.8006137167968743,1.5337703457062688,1.3805878615771248,101.63350794363724,0.69574225,-93.55815080337857
217.60785,2.103851631835937,1.3728688359555572,1.116835887986581,101.67246642258642,0.69574225,-93.55815080337857
217.60797,1.700226143554687,1.2889479078250137,0.971109362699446,101.703214323413,0.7022784,-94.45656776725208
217.60812,1.541992500976562,1.2376868469838995,0.9334178066652344,101.7207887020635,0.7022784,-94.45656776725208
217.60854,1.5703891074218743,1.2135054232956342,0.9016203575892748,101.74288020158154,0.7022784,-94.45656776725208
217.60909,1.678924874023437,1.2245651590217508,0.8743059392005166,101.75432814964388,0.7022784,-94.45656776725208
217.60951,1.7113803183593743,1.2719246015804555,0.8336986193908628,101.76741203238656,0.7022784,-94.45656776725208
217.61024,1.530853584960937,1.336040933658552,0.7401007880991801,101.76768737763284,0.7022784,-94.45656776725208
217.6115,2.214401558593749,1.4104061042746625,0.6033264078063044,101.76040326901672,0.7071749,-95.364953868557
217.61285,1.4284213339843743,1.500819095535167,0.4848670977464374,101.75270499861062,0.7071749,-95.364953868557
217.6136,1.453766182617187,1.6045596601005685,0.4264022902377897,101.750780640886,0.7071749,-95.364953868557
217.61453,1.6414035117187495,1.697481138497109,0.4519369284960859,101.72653637504963,0.7071749,-95.364953868557
217.6155,1.5906832968749995,1.8093163253460016,0.5177304118311735,101.68384044016824,0.7071749,-95.364953868557
217.61678,1.6292269980468743,1.947060623872835,0.6352159474234489,101.65085017390312,0.7071749,-95.364953868557
217.61794,1.779327706054687,2.0462248355788306,0.7566193390601949,101.62877021317362,0.7110612,-96.27418084094792
217.61935,1.450714424804687,2.101691421479661,0.8506859744089912,101.60514585075782,0.7110612,-96.27418084094792
217.62068,1.2620700156249995,2.048790456561264,0.8970196979416333,101.59192582086835,0.7110612,-96.27418084094792
217.62178,1.3472750937499995,1.9611640138584845,0.9061041092833804,101.5777780216948,0.7110612,-96.27418084094792
217.6232,1.631256416992187,1.808562232345924,0.8865102929655974,101.55704417953264,0.7110612,-96.27418084094792
217.62433,1.891907051757812,1.6355347355417995,0.8632934669173294,101.53093926978198,0.7110612,-96.27418084094792
217.62538,1.547058418945312,1.5207213692961297,0.8266723550858287,101.51532513306672,0.71477073,-97.10170429560615
217.62605,1.528808907226562,1.395684221508503,0.7956267470957694,101.50031734848866,0.71477073,-97.10170429560615
217.62692,1.242798165039062,1.2669405708228447,0.8009322416519111,101.48829973078114,0.71477073,-97.10170429560615
217.62738,1.640381172851562,1.1683458826373834,0.8237653312783496,101.47116590203588,0.71477073,-97.10170429560615
217.62767,1.5014193808593743,1.129057049741627,0.8489976907150041,101.4648267423876,0.71477073,-97.10170429560615
217.62898,1.526794747070312,1.1532544196839536,0.8730396593718751,101.45671694908695,0.71477073,-97.10170429560615
217.63022,1.161651924804687,1.202370707785146,0.853308742609535,101.45439660390768,0.71836025,-97.74191763061582
217.63145,1.4304354941406243,1.2811038297465331,0.7903521019358005,101.46388596009396,0.71836025,-97.74191763061582
217.6322,1.329010323242187,1.3767828300872516,0.6649525053748228,101.50192934653391,0.71836025,-97.74191763061582
217.63286,1.605896309570312,1.456450913872605,0.5548803184560976,101.55011789213576,0.71836025,-97.74191763061582
217.63376,0.8837435996093745,1.4159551468970657,0.5494642813060449,101.6029473084932,0.71836025,-97.74191763061582
217.63428,1.0257418906249995,1.220390718975534,0.6733741064062443,101.63610698064784,0.71836025,-97.74191763061582
217.63528,1.3563998496093743,0.9103285254314076,0.9220195643283928,101.67335440078747,0.7217561,-98.18994229882873
217.63673,1.481140450195312,0.5639725868767578,1.1583051604459935,101.7391516560606,0.7217561,-98.18994229882873
217.63805,1.2671359335937495,0.3003011796375932,1.2946267741023876,101.7905362780526,0.7217561,-98.18994229882873
217.63948,0.551056221679687,0.0573260202092695,1.3471332434512635,101.82626673261906,0.7217561,-98.18994229882873
217.64136,1.547058418945312,-0.1012944681139046,1.3127517855861972,101.85938452876552,0.7217561,-98.18994229882873
217.64272,2.0643161093749995,-0.0810496414408065,1.2099918904930724,101.88989061265688,0.7217561,-98.18994229882873
217.64394,1.510559395507812,-0.0066552082804248,1.170159235533771,101.91304937745872,0.724544,-98.4090033712013
217.64484,1.2002108847656243,0.0767561539645,1.1701153848657644,101.9036224149883,0.724544,-98.4090033712013
217.64551,0.9658969199218744,0.1302229085658539,1.1044468912423755,101.86244862511722,0.724544,-98.4090033712013
217.64545,1.4781039511718743,0.1482801828793653,1.0139055350291182,101.81213378339982,0.724544,-98.4090033712013
217.64513,1.402038887695312,0.1511174675856135,0.9428545081969534,101.75377601291784,0.724544,-98.4090033712013
217.64517,2.044037178710937,0.1050386181423312,0.8705622712568979,101.70383712909806,0.724544,-98.4090033712013
217.64513,1.452759102539062,0.0634452531638467,0.7708342166915648,101.64709067671208,0.72688687,-98.49880881098522
217.64462,1.397980049804687,0.0588289172564867,0.6930076498813885,101.60907375946654,0.72688687,-98.49880881098522
217.64404,1.1160128867187495,0.0940583511686748,0.6506818827084903,101.5795498830581,0.72688687,-98.49880881098522
217.64319,1.074432686523437,0.156723390478538,0.6754076359709376,101.56134433236878,0.72688687,-98.49880881098522
217.64317,1.8777011191406243,0.2257249506751765,0.7237582232816155,101.5412338716743,0.72688687,-98.49880881098522
217.64351,1.229614571289062,0.3202570736611549,0.8458345365653848,101.5022561291118,0.72688687,-98.49880881098522
217.64417,1.4000094687499995,0.4037796708065697,1.02361578831297,101.47388978336234,0.72952265,-98.56675762806483
217.64496,1.3746493613281243,0.452516798639603,1.1565281716538605,101.45606918715222,0.72952265,-98.56675762806483
217.6455,1.9862216269531243,0.5664593219086137,1.3088541493562975,101.4331935283764,0.72952265,-98.56675762806483
217.64595,1.167755440429687,0.6911992661130145,1.4638188706034885,101.41463169727672,0.72952265,-98.56675762806483
217.64629,1.5724337851562495,0.6552874616551932,1.5652671183342108,101.39087648809527,0.72952265,-98.56675762806483
217.64671,1.891907051757812,0.5116821362026411,1.609081407004144,101.34903641007108,0.72952265,-98.56675762806483
217.64731,2.088653877929687,0.310165038593133,1.565473886468483,101.31870959561388,0.7328348,-98.6367380624446
217.64787,1.534912422851562,0.1784023403715065,1.4228649683157013,101.32596526916916,0.7328348,-98.6367380624446
217.64891,2.036926583007812,0.1755302257688677,1.250356772966288,101.34170567603545,0.7328348,-98.6367380624446
217.64952,0.904022530273437,0.2693241530633363,1.050954727639049,101.34710023146044,0.7328348,-98.6367380624446
217.64987,1.2843783652343743,0.3746936910697033,0.9490946384326188,101.36371209946527,0.7328348,-98.6367380624446
217.65034,2.105896309570312,0.4472999687512806,0.9306841750527136,101.3801451435298,0.7328348,-98.6367380624446
217.65059,1.845245674804687,0.4783885514982418,0.9456995903656898,101.40554140198158,0.7363184,-98.6742834501734
217.65114,2.373627022460937,0.4590068961732715,1.016782140839022,101.4208483760248,0.7363184,-98.6742834501734
217.65195,1.554169014648437,0.4101224836974239,1.0970822514890206,101.39925091257238,0.7363184,-98.6742834501734
217.6523,1.5602572714843743,0.3615261576332154,1.1667305382481836,101.3702368946659,0.7363184,-98.6742834501734
217.65266,1.752960518554687,0.3565921900587403,1.2196006987092418,101.36183826281858,0.7363184,-98.6742834501734
217.65323,1.896972969726562,0.4245796747566781,1.2881905370633124,101.3648834897002,0.7363184,-98.6742834501734
217.65361,1.597778633789062,0.5261483457232288,1.2822656953119989,101.3700056621948,0.7398663,-98.68662765707109
217.65411,1.631256416992187,0.6471592963503681,1.2020693905946402,101.3601392026209,0.7398663,-98.68662765707109
217.65483,1.824982002929687,0.7492167991258623,1.0606655088679466,101.34923999466632,0.7398663,-98.68662765707109
217.65573,1.5095370566406243,0.7267041694438804,0.9273009338944608,101.34452013491313,0.7398663,-98.68662765707109
217.65633,1.130218819335937,0.5865062584969576,0.8454664493939648,101.3316482290111,0.7398663,-98.68662765707109
217.65657,1.5724337851562495,0.4312631747950768,0.853493892557261,101.31423690278228,0.7398663,-98.68662765707109
217.65634,1.1119540488281243,0.2368590929867486,0.951891047582992,101.29616789729462,0.74356186,-98.66955203960774
217.65633,1.613006905273437,0.1174824171815947,1.065375603092047,101.2813845995484,0.74356186,-98.66955203960774
217.65654,0.6352389609374995,0.0644227620487036,1.139922754276664,101.27717879651108,0.74356186,-98.66955203960774
217.65685,1.613006905273437,0.0556040927712072,1.2283864179710402,101.2693384856557,0.74356186,-98.66955203960774
217.65776,1.5785067832031243,0.1108031823991164,1.3472740937760068,101.26503502395974,0.74356186,-98.66955203960774
217.65855,2.165741280273437,0.2110103653582767,1.4791628710401212,101.26476281669028,0.74356186,-98.66955203960774
217.6596,1.6454623496093743,0.2904357675434643,1.6004529296467904,101.27631220165628,0.7468376,-98.6075536492315
217.66057,2.0916903769531245,0.3689274190501189,1.7140920674512186,101.29113333189818,0.7468376,-98.6075536492315
217.66145,1.7813571249999995,0.3472919565051949,1.7550146787547858,101.30214401823176,0.7468376,-98.6075536492315
217.6618,1.4355014121093743,0.2820139927804615,1.7146044711603516,101.31011254030172,0.7468376,-98.6075536492315
217.66232,0.983154610351562,0.218760295331958,1.6053102329480184,101.32159268803746,0.7468376,-98.6075536492315
217.66286,2.072433785156249,0.1501086141480637,1.5046374474612767,101.35211836638574,0.7468376,-98.6075536492315
217.66321,1.1281894003906243,0.0902731211729414,1.458985320555186,101.37824260798682,0.74937,-98.54348500484456
217.66348,1.5653231894531243,0.0871618291047182,1.4709689591839552,101.3854673061118,0.74937,-98.54348500484456
217.66376,1.308716133789062,0.1555768384197428,1.4837538858562482,101.40833661107466,0.74937,-98.54348500484456
217.66446,1.329010323242187,0.2710018097302875,1.463287428002502,101.42392834547648,0.74937,-98.54348500484456
217.66493,1.6555941855468743,0.4010985813059646,1.4069611591616369,101.44374279773598,0.74937,-98.54348500484456
217.66518,1.392914131835937,0.4696487398653295,1.3583710296997489,101.46792476874604,0.7511104,-98.48606249021188
217.66542,1.678924874023437,0.4721050251983648,1.32387971885467,101.52038974463257,0.7511104,-98.48606249021188
217.66563,1.299591377929687,0.3906279865274359,1.2694792714045744,101.56267601334498,0.7511104,-98.48606249021188
217.66609,1.832062081054687,0.3323487570856397,1.237292881257091,101.60293082642656,0.7511104,-98.48606249021188
217.66666,1.5744479453124995,0.2825982656387538,1.240080079630121,101.6341006367706,0.7511104,-98.48606249021188
217.66722,1.680939034179687,0.2309153311202419,1.2785412434216368,101.64181280461112,0.7511104,-98.48606249021188
217.6673,1.5846102988281243,0.1927938724203829,1.3045344537215076,101.64319321153336,0.7529133,-98.41856343318672
217.66731,1.7955477988281243,0.1559649714770878,1.3674871566837106,101.64570981542784,0.7529133,-98.41856343318672
217.66727,1.476074532226562,0.0877698418897762,1.4689571913211334,101.66433599851304,0.7529133,-98.41856343318672
217.66695,0.925323799804687,0.0327756358130517,1.5528247970006095,101.68479397634738,0.7529133,-98.41856343318672
217.6664,1.5024569785156243,0.0568008875083356,1.5444933016057476,101.69318480440596,0.7529133,-98.41856343318672
217.66626,1.4365084921874995,0.0960958004670095,1.434519777010732,101.68003101846432,0.7529133,-98.41856343318672
217.66617,1.6292269980468743,0.1248215436034772,1.2630918542885918,101.67380336710694,0.7553825,-98.31137289649593
217.66687,2.217453316406249,0.1918912621459805,1.0640938162400575,101.66746009097795,0.7553825,-98.31137289649593
217.66718,2.028808907226562,0.2572864514969496,0.9090124017509394,101.66671518681883,0.7553825,-98.31137289649593
217.66692,1.3452304160156243,0.2939347393773882,0.7601888868529636,101.66681548768378,0.7553825,-98.31137289649593
217.6666,2.0176547324218745,0.3008606268466853,0.7055511001660357,101.66909349157132,0.7553825,-98.31137289649593
217.66624,1.890899971679687,0.2808970714679631,0.7588967251970954,101.6490123542758,0.7553825,-98.31137289649593
217.66553,1.9395602499999995,0.2814216517182132,0.9077600509055532,101.65717248564366,0.75858825,-98.17699622790563
217.66478,1.2022250449218743,0.3066596536563236,1.113294672675228,101.66559458172354,0.75858825,-98.17699622790563
217.66408,1.4943393027343743,0.3332339468487709,1.3438349810965908,101.67400004521662,0.75858825,-98.17699622790563
217.66357,1.6687777792968743,0.3997982177263505,1.5234220674935297,101.6810024453762,0.75858825,-98.17699622790563
217.66318,1.884796456054687,0.4310990893081441,1.657605227748916,101.66431147988388,0.75858825,-98.17699622790563
217.66307,1.611969307617187,0.394808208507014,1.7009895115179197,101.63057169543524,0.75858825,-98.17699622790563
217.66318,1.6505282675781243,0.3152493444538255,1.701896014277835,101.5979995203081,0.762738,-98.00837904415556
217.66368,1.839172676757812,0.1638187036217555,1.6251392692736693,101.56678673375836,0.762738,-98.00837904415556
217.66379,1.919281319335937,-0.0305337463384204,1.4917974645835188,101.55818228072869,0.762738,-98.00837904415556
217.66377,1.7854159628906243,-0.1770573074046613,1.452311918761779,101.56352413460094,0.762738,-98.00837904415556
217.66338,1.332062081054687,-0.3020096149643785,1.515989131681928,101.57598188987711,0.762738,-98.00837904415556
217.66316,1.748901680664062,-0.4911102323138124,1.6078779214590615,101.55736335673528,0.762738,-98.00837904415556
217.66289,1.456817940429687,-0.7170218362323135,1.6973372814838763,101.50753997428797,0.7675079,-97.77013953044217
217.66258,1.947677925781249,-0.9242624911829954,1.81742015299037,101.46375397395649,0.7675079,-97.77013953044217
217.66241,1.541992500976562,-1.055759072030788,1.9969246543825736,101.41106271227372,0.7675079,-97.77013953044217
217.66255,2.056198433593749,-0.984810824466504,2.1037313970475098,101.38660003479993,0.7675079,-97.77013953044217
217.66249,1.693115547851562,-0.7146913493358871,2.171768617380567,101.36351025858,0.7675079,-97.77013953044217
217.66122,1.705292061523437,-0.3598014844443716,2.2007705278158043,101.31512622497767,0.7675079,-97.77013953044217
217.6594,1.882782295898437,0.0747781935122168,2.091402367687447,101.26360752190944,0.77302086,-97.47316859476342
217.6572,1.7205050742187495,0.4224018157192395,1.8407014455886772,101.24988846151028,0.77302086,-97.47316859476342
217.6549,1.393921211914062,0.6130898153507055,1.6038213920644768,101.26955297476184,0.77302086,-97.47316859476342
217.65213,1.8756869589843743,0.7335367811252611,1.322883554239578,101.28803104119454,0.77302086,-97.47316859476342
217.64915,1.596771553710937,0.760335584379195,1.1053809066791744,101.30754363326324,0.77302086,-97.47316859476342
217.64836,2.0521395957031245,0.7006331825478723,0.955261672064929,101.33433888449696,0.77302086,-97.47316859476342
217.64821,1.694122627929687,0.6244964437465833,0.8258316896300115,101.34252738568938,0.7783952,-97.21496404388706
217.64865,1.4243624960937495,0.5380417537066837,0.8060355221660097,101.38016764007811,0.7783952,-97.21496404388706
217.64935,1.7996066367187495,0.4372431482174424,0.875595569445879,101.41916934117016,0.7783952,-97.21496404388706
217.65057,1.6992038046874995,0.339217302305595,0.9949472661182522,101.44913318037108,0.7783952,-97.21496404388706
217.65234,1.380737618164062,0.2099593818655916,1.162554756555723,101.45092789184524,0.7783952,-97.21496404388706
217.65367,1.534912422851562,0.1497784661090668,1.342161985499271,101.4409322495714,0.7783952,-97.21496404388706
217.65497,1.2722018515624995,0.1817130384676912,1.4589606433847313,101.41588549455128,0.7823191,-96.95222544058134
217.6564,1.5876315390624995,0.3109688704503463,1.533528348995588,101.38917141695472,0.7823191,-96.95222544058134
217.65802,1.7194979941406243,0.5533352589927232,1.576196717343734,101.3693978505281,0.7823191,-96.95222544058134
217.6599,2.167755440429687,0.771414481459312,1.611137338775596,101.34523658738576,0.7823191,-96.95222544058134
217.66173,1.8635104453124995,0.8326247140221641,1.6037472402823016,101.32725468153066,0.7823191,-96.95222544058134
217.66301,2.040985420898437,0.7799174735764797,1.5358585702483571,101.30430271871543,0.7823191,-96.95222544058134
217.66437,1.5785067832031243,0.5973651120722263,1.4276520042245275,101.2897560223171,0.78505915,-96.67296151554588
217.66504,1.901031807617187,0.371241394167687,1.320258667129021,101.30793915948928,0.78505915,-96.67296151554588
217.6661,1.9324801718749995,0.0451681112618387,1.1891052325089753,101.32633986234303,0.78505915,-96.67296151554588
217.66707,1.9517367636718743,-0.244503809070518,1.0862952175118057,101.31591687968115,0.78505915,-96.67296151554588
217.66795,1.983185127929687,-0.4709300082201517,1.0246765049116278,101.30489840219084,0.78505915,-96.67296151554588
217.6684,1.687042549804687,-0.6230348590427185,1.0201974382665802,101.2857027306405,0.78505915,-96.67296151554588
217.66818,1.549103096679687,-0.7077235456438994,1.0609860175641577,101.24147941944956,0.78649503,-96.31660063587024
217.6681,2.281341866210937,-0.7148973975124003,1.1384179144104158,101.19485558847248,0.78649503,-96.31660063587024
217.6682,1.896972969726562,-0.6758064723820711,1.2007630480060307,101.15449404011136,0.78649503,-96.31660063587024
217.66844,2.220489815429687,-0.6318707243613032,1.244169867916012,101.13057129421526,0.78649503,-96.31660063587024
217.6685,1.596771553710937,-0.6223086364245619,1.268044009266558,101.12652960437865,0.78649503,-96.31660063587024
217.66818,1.627197579101562,-0.6302143385289176,1.2027393220456466,101.12315197899252,0.78649503,-96.31660063587024
