IMU_ATTI(0):alti:D,IMU_ATTI(0):relativeHeight:C,IMU_ATTI(0):roll:C,IMU_ATTI(0):pitch:C,IMU_ATTI(0):yaw:C,AirSpeed:windSpeed,AirSpeed:windDirection,CompassFilter(1):X:D,CompassFilter(1):Y:D,CompassFilter(1):Z:D,IMU_ATTI(0):tiltInclination:C,IMU_ATTI(0):tiltDirectionEarthFrame:C
218.06287,2.0831296777343766,1.4863099027333866,2.20301511819521,124.83085966715416,0.82903475,-59.34838872189095,31.0,-22.0,510.0,2.656697700586431,-89.16839391077542
218.06284,2.604385170898439,1.4577994959943457,2.2129974323310764,124.85521853187646,0.8402936,-59.8982328667456,29.0,-24.0,512.0,2.649210106977437,-88.5120364706852
218.06273,2.391418251953126,1.422715416933907,2.243685845158431,124.87054633548571,0.8402936,-59.8982328667456,26.0,-23.0,510.0,2.6559576472715145,-87.50020932522402
218.0623,2.299148354492189,1.402296647626729,2.2770682160812146,124.87510419691849,0.8402936,-59.8982328667456,32.0,-23.0,509.0,2.6734507126314595,-86.74271672396758
218.06128,2.6966550683593766,1.3832245883061127,2.294985641597169,124.889207956124,0.8402936,-59.8982328667456,31.0,-23.0,513.0,2.678839432869802,-86.1802052921392
218.06154,2.286971840820314,1.3942805261407032,2.297304725588256,124.89946525235058,0.8402936,-59.8982328667456,31.0,-24.0,513.0,2.6865339272031057,-86.34633630326384
218.06091,2.233230385742189,1.3956199974690795,2.2062284382248007,124.91056684558384,0.8402936,-59.8982328667456,30.0,-25.0,509.0,2.609856769167669,-87.39845703300279
218.06067,2.203826699218752,1.3155252153508623,2.0790377776433577,124.918572499299,0.85148036,-60.39566528241592,27.0,-24.0,513.0,2.459668509541075,-87.39847144662554
218.06036,2.2839353417968766,1.1408257770673846,2.0331782707414074,124.92832529140132,0.85148036,-60.39566528241592,32.0,-27.0,510.0,2.3309040998413426,-84.3616261074482
218.06068,2.632781777343752,0.967887394027955,2.039794853224973,124.9346326423371,0.85148036,-60.39566528241592,28.0,-25.0,510.0,2.2574293144801576,-80.44254923976197
218.06096,2.301162514648439,0.7633587476106937,2.112158273025257,124.95277092542638,0.85148036,-60.39566528241592,31.0,-28.0,508.0,2.2456344488415847,-74.91046422748454
218.06158,2.537460122070314,0.5610437801786832,2.204988887203364,124.97895288402124,0.85148036,-60.39566528241592,29.0,-29.0,510.0,2.2751098886815195,-69.29030171691267
218.06189,2.835586342773439,0.4516562705534153,2.203159681929073,124.98122986562456,0.85148036,-60.39566528241592,32.0,-30.0,510.0,2.24888952768471,-66.59878650911354
218.06276,2.846740517578126,0.3888405846989553,2.1188150204234293,124.9809335543658,0.86255616,-60.83814901409715,28.0,-33.0,508.0,2.1541352298048384,-65.41367623457948
218.06328,2.597274575195314,0.4172363199429065,1.9615924073491835,124.97191108776948,0.86255616,-60.83814901409715,28.0,-32.0,509.0,2.005407443315363,-67.03175890125046
218.06343,2.514129433593752,0.5415060375925368,1.862067099487876,124.96699972777088,0.86255616,-60.83814901409715,32.0,-33.0,509.0,1.9391002956803416,-71.2429592328298
218.06447,2.6114805078125016,0.693105020921656,1.867586683345065,124.96641641444056,0.86255616,-60.83814901409715,32.0,-30.0,508.0,1.991882137114109,-75.38894100641546
218.06392,2.019256386718752,0.926551697450522,2.003266821700036,124.96297157134276,0.86255616,-60.83814901409715,33.0,-29.0,510.0,2.206847913088774,-79.85153661466843
218.06314,2.104446206054689,1.2565428092913755,2.228822963146109,124.92494663145646,0.86255616,-60.83814901409715,29.0,-27.0,509.0,2.5580009855645645,-84.4796017640958
218.06189,1.969558510742189,1.5500224115186112,2.466883824778916,124.88811258723652,0.8737924,-61.25376020578394,31.0,-24.0,511.0,2.912413832121574,-87.24469711749508
218.06154,2.5678708886718766,1.7583180051115717,2.630838732994157,124.85841467913458,0.8737924,-61.25376020578394,30.0,-22.0,511.0,3.1629600534780247,-88.8880269720773
218.06143,2.559753212890626,1.9522413235604197,2.78131899188103,124.82446767497358,0.8737924,-61.25376020578394,29.0,-20.0,509.0,3.3963255459618558,-90.23026730731831
218.06169,2.556716713867189,2.0649051180461617,2.87625505017219,124.81485416007072,0.8737924,-61.25376020578394,24.0,-20.0,509.0,3.538696918333684,-90.84920065379715
218.0618,2.556716713867189,2.135688613411039,2.8510717683123943,124.8347390896467,0.8737924,-61.25376020578394,26.0,-19.0,510.0,3.5601608849377078,-91.99154071889218
218.06174,1.572006020507814,2.1450253902381182,2.726634293228792,124.87566540538631,0.8737924,-61.25376020578394,24.0,-18.0,511.0,3.467246681960746,-93.3082160422754
218.0617,2.543533120117189,2.025675120701436,2.582716837071158,124.92123446967013,0.8858272,-61.67469207815444,30.0,-16.0,511.0,3.2806533777583997,-93.179288900769
218.06233,2.364028725585939,1.8057888747505664,2.455426344184189,124.9449158579974,0.8858272,-61.67469207815444,24.0,-20.0,512.0,3.0466404091176478,-91.37919108751797
218.06183,2.194686684570314,1.4550143954633146,2.318313073139147,124.9577485064824,0.8858272,-61.67469207815444,26.0,-21.0,510.0,2.7362430634787387,-87.1468252776882
218.06206,2.602340493164064,1.1378976044362212,2.2407087428853787,124.98510424004988,0.8858272,-61.67469207815444,29.0,-26.0,510.0,2.5125581935986383,-81.92893745985202
218.06151,2.805145058593752,0.8978504549142705,2.221535768719781,125.02852931632486,0.8858272,-61.67469207815444,33.0,-27.0,510.0,2.395775886820518,-76.96959119475633
218.06131,2.344772133789064,0.7558453174108316,2.2214484706273097,125.06767496930657,0.8858272,-61.67469207815444,29.0,-29.0,511.0,2.346271789429325,-73.7153955746942
218.06075,2.5780027246093766,0.7006431117377583,2.269392046396796,125.09936380627356,0.89835393,-61.97440873644992,28.0,-29.0,509.0,2.3748715827329465,-72.05033651000322
218.06027,2.6216123437500016,0.617216339399212,2.3641082272176077,125.11883495011304,0.89835393,-61.97440873644992,30.0,-30.0,507.0,2.4431741044324014,-69.50580586606675
218.05966,2.745330605468752,0.4044068802636528,2.494722993408567,125.14618605487422,0.89835393,-61.97440873644992,28.0,-30.0,508.0,2.527206901447732,-64.05607518906164
218.05803,2.028381142578126,0.1645523469397525,2.619283558289748,125.1664887145286,0.89835393,-61.97440873644992,26.0,-33.0,508.0,2.624432978530944,-58.42581553892509
218.05696,2.370132241210939,-0.1382438954533692,2.770300466253925,125.17718231656336,0.89835393,-61.97440873644992,26.0,-37.0,505.0,2.7737369276517683,-51.96822336525309
218.05737,2.565856728515626,-0.3825091891207147,2.9043524380504246,125.2075608760056,0.89835393,-61.97440873644992,21.0,-38.0,506.0,2.9293473202006277,-47.29589207317637
218.05713,2.002013955078126,-0.5296587011421038,2.9987303147935656,125.22759276991845,0.91119397,-62.06647556631869,25.0,-40.0,504.0,3.044979248520373,-44.764383617024265
218.05733,2.079070839843752,-0.6302864571678034,3.065063443529365,125.24539641019835,0.91119397,-62.06647556631869,22.0,-43.0,505.0,3.128955303620525,-43.14485797682138
218.05809,2.729110512695314,-0.6216988609480896,3.0565156824155792,125.26230020824453,0.91119397,-62.06647556631869,25.0,-43.0,503.0,3.1188672793039776,-43.25069244808415
218.0586,2.778793129882814,-0.5634778577085715,2.9656741145641896,125.28354771685098,0.91119397,-62.06647556631869,22.0,-41.0,505.0,3.0185422904352395,-43.96753615489605
218.05946,2.563812050781252,-0.5323148633335801,2.8731698389809908,125.28753201538562,0.91119397,-62.06647556631869,26.0,-38.0,506.0,2.92190266197893,-44.22455002681272
218.06064,2.5283201074218766,-0.5098583191272175,2.779751237941344,125.28495722388848,0.91119397,-62.06647556631869,25.0,-39.0,506.0,2.825979046350596,-44.32916402453278
218.06143,2.032424721679689,-0.5000208514482637,2.6781715865321143,125.27706428681331,0.92417073,-61.96247479986231,26.0,-39.0,504.0,2.7243157551276718,-44.15470566205317
218.0618,2.2017820214843766,-0.4967042318077191,2.600934189321024,125.26416672505616,0.92417073,-61.96247479986231,28.0,-41.0,507.0,2.6478097700051806,-43.93114221137324
218.06165,2.382293496093752,-0.4872979355039573,2.5671683006766006,125.24765895170434,0.92417073,-61.96247479986231,28.0,-41.0,506.0,2.6128867923675547,-44.011143142006176
218.0618,2.395477089843752,-0.470901161002365,2.596435220631156,125.23908803638622,0.92417073,-61.96247479986231,27.0,-40.0,507.0,2.638677171191275,-44.48789141659222
218.06131,2.540481362304689,-0.3981972522640281,2.6801276007172485,125.2238539408628,0.92417073,-61.96247479986231,30.0,-41.0,506.0,2.709461738538708,-46.33124527078788
218.06087,2.678405556640626,-0.3190004032661917,2.736248876030345,125.20867497620378,0.92417073,-61.96247479986231,25.0,-39.0,505.0,2.7547250437791613,-48.146565982733314
218.06049,2.364028725585939,-0.2569942600018899,2.7921412764992537,125.20273124929452,0.93691295,-61.74732454381334,24.0,-40.0,504.0,2.803906216361832,-49.542572934174366
218.05966,2.576995644531252,-0.2172931959482145,2.805844435232559,125.17794529771416,0.93691295,-61.74732454381334,25.0,-38.0,509.0,2.814218990404799,-50.39723794132578
218.05891,2.273788247070314,-0.1958669981789124,2.795384744179324,125.16547038640016,0.93691295,-61.74732454381334,27.0,-39.0,504.0,2.8022166460129263,-50.82963475203948
218.05803,1.8762510156250016,-0.1495617079324069,2.765235204461375,125.16805504605836,0.93691295,-61.74732454381334,27.0,-38.0,502.0,2.769264351535746,-51.73842955942565
218.05685,2.367080483398439,-0.1075376781990488,2.7400619393944208,125.18644110132183,0.93691295,-61.74732454381334,26.0,-39.0,506.0,2.742164940088483,-52.56776620048989
218.05573,2.0101316308593766,-0.0641883291489509,2.7468260449489605,125.19326393392484,0.93691295,-61.74732454381334,26.0,-36.0,505.0,2.7475736297274,-53.469106324293286
218.05461,2.757507119140626,-0.035619220232002,2.7784491179235884,125.20127698314712,0.949456,-61.47760242782178,27.0,-37.0,505.0,2.778676709557661,-54.06481728005839
218.05367,1.764694008789064,-0.0517634521686161,2.8232833306439264,125.21602885856112,0.949456,-61.47760242782178,24.0,-36.0,504.0,2.8237562847495554,-53.7344498799604
218.0527,2.1459958886718766,-0.170724178814929,2.8839507530370763,125.22993740140436,0.949456,-61.47760242782178,21.0,-39.0,502.0,2.8889825808128884,-51.38506450379028
218.0517,2.5546872949218766,-0.2990146040822556,2.926760385952345,125.24018436277154,0.949456,-61.47760242782178,21.0,-36.0,506.0,2.941942457010346,-48.93137772540367
218.05148,2.595260415039064,-0.4271596763966689,2.9122997509956874,125.23884655812206,0.949456,-61.47760242782178,20.0,-37.0,503.0,2.9433530999508792,-46.42376486612014
218.05098,2.115585122070314,-0.5873036141980175,2.816992386321642,125.2540768131846,0.949456,-61.47760242782178,24.0,-40.0,509.0,2.877370550993708,-42.97807377092981
218.05026,2.189620766601564,-0.7825015200265153,2.677690328617211,125.26712310906493,0.96170145,-61.16664846269609,23.0,-42.0,505.0,2.7893642698925505,-38.45320362008198
218.04987,2.586120400390626,-0.9312996078355256,2.5514238785052235,125.2777321196457,0.96170145,-61.16664846269609,31.0,-44.0,503.0,2.715656841238415,-34.68016991681864
218.0493,2.047652993164064,-1.0155806771596878,2.426535843357551,125.29346563192038,0.96170145,-61.16664846269609,29.0,-44.0,503.0,2.6300220985296674,-32.005774805176074
218.04852,2.487746987304689,-1.0204537856784262,2.366987007243033,125.31195587391,0.96170145,-61.16664846269609,30.0,-43.0,503.0,2.5771275006238707,-31.37588789298577
218.04803,2.203826699218752,-0.96852547409321,2.3621875137135198,125.32175319073131,0.96170145,-61.16664846269609,32.0,-44.0,501.0,2.552615829959616,-32.39350574191602
218.04724,2.4958799218750016,-0.8968281053458314,2.3990905743505557,125.3153092177265,0.96170145,-61.16664846269609,31.0,-44.0,505.0,2.560870524702954,-34.19739130539524
218.04709,2.5323789453125016,-0.7521223875770712,2.447175032770627,125.291393661695,0.9734182,-60.82400723861543,29.0,-43.0,505.0,2.5598787296457344,-37.63301806528958
218.04749,2.338683876953126,-0.5707289483736767,2.475871386844766,125.25675605581394,0.9734182,-60.82400723861543,30.0,-42.0,504.0,2.5406417394905647,-41.76977448306521
218.04765,2.487746987304689,-0.401032865271002,2.4700271399594933,125.22591632517432,0.9734182,-60.82400723861543,23.0,-39.0,507.0,2.502291604157638,-45.55749710197919
218.04813,2.511077675781252,-0.3179732381841929,2.4400887963851607,125.19148135510864,0.9734182,-60.82400723861543,23.0,-38.0,507.0,2.4606698332739336,-47.38838287395011
218.04762,1.783981118164064,-0.2557974593139885,2.3994719424922177,125.17099924956504,0.9734182,-60.82400723861543,33.0,-39.0,502.0,2.4130364823222483,-48.74741575262364
218.04768,2.744323525390626,-0.1873311488097218,2.344623397380228,125.16269235217452,0.9734182,-60.82400723861543,28.0,-39.0,506.0,2.352078558409512,-50.27170620025832
218.04787,2.348830971679689,-0.1440074318968556,2.3197790673582155,125.15809345499264,0.98476696,-60.5223636924443,29.0,-40.0,506.0,2.324234878595464,-51.29158175119847
218.04816,2.503997597656252,-0.074401916144592,2.314185431860761,125.16578511592746,0.98476696,-60.5223636924443,30.0,-35.0,509.0,2.315378549349743,-52.993768452457616
218.04883,2.397506508789064,0.0522092650855399,2.306567563501295,125.15989662569652,0.98476696,-60.5223636924443,27.0,-36.0,507.0,2.30715709194115,-56.13607465774315
218.04898,2.805145058593752,0.16889999814373,2.3003618352288235,125.15805837171938,0.98476696,-60.5223636924443,31.0,-36.0,508.0,2.306540812215905,-59.039011185596586
218.0496,2.629730019531252,0.2735857586264176,2.3129597860811324,125.15128238386356,0.98476696,-60.5223636924443,29.0,-35.0,508.0,2.32904908347268,-61.59095809035315
218.05037,2.9177244042968766,0.3468883317170949,2.3606140551963555,125.124400078892,0.98476696,-60.5223636924443,30.0,-33.0,505.0,2.3859082365636617,-63.23072683329907
218.05118,2.458343300781252,0.4124651243786233,2.4031751728934694,125.10271917395048,0.99565536,-60.29339883321624,25.0,-32.0,509.0,2.438232900904706,-64.63082219944941
218.05247,2.9288633203125016,0.4750318162002849,2.429828084080468,125.09798356015094,0.99565536,-60.29339883321624,26.0,-33.0,506.0,2.475717899362172,-65.95760921133626
218.05283,2.588149819335939,0.522795948367905,2.447727783826396,125.10223296299851,0.99565536,-60.29339883321624,27.0,-32.0,508.0,2.5028029136966548,-66.94729227678484
218.05301,2.754455361328126,0.5522701935531578,2.449112695697614,125.1099962370087,0.99565536,-60.29339883321624,28.0,-31.0,506.0,2.5104607164137844,-67.59043800800734
218.05383,2.159194741210939,0.5649224921695198,2.4468101804971965,125.12360802741084,0.99565536,-60.29339883321624,27.0,-32.0,507.0,2.511024130453724,-67.86987101351184
218.05498,2.729110512695314,0.5461468102839894,2.4351633358038693,125.13272555992651,0.99565536,-60.29339883321624,25.0,-29.0,508.0,2.4955117842491026,-67.50112878336476
218.05653,2.9156797265625016,0.5099663275407257,2.426463365623525,125.14653688779796,1.006187,-60.14579243428653,27.0,-30.0,509.0,2.479348458309239,-66.71590106602757
218.05743,2.6743467187500016,0.4608274177791535,2.428366202783121,125.14921949590943,1.006187,-60.14579243428653,24.0,-28.0,508.0,2.4716019410914227,-65.58988654939141
218.05804,2.483688149414064,0.389302017329821,2.4326158997119403,125.1493030023678,1.006187,-60.14579243428653,28.0,-30.0,506.0,2.463495938617366,-63.93765570296478
218.0579,2.354903969726564,0.3591868391150536,2.435835167242746,125.14552793967027,1.006187,-60.14579243428653,24.0,-33.0,509.0,2.4621124097090608,-63.23794930856199
218.0575,2.694625649414064,0.3479275998819377,2.4203247883926764,125.12746782069225,1.006187,-60.14579243428653,27.0,-36.0,507.0,2.445145789565581,-63.04819773991352
218.05765,2.322479042968752,0.3615184658405673,2.386177942245656,125.13206611848403,1.006187,-60.14579243428653,27.0,-32.0,505.0,2.4133459732520164,-63.47823287108752
218.05704,2.108505043945314,0.3875747705083942,2.359203861142611,125.12635033822365,1.0161935,-60.053956608580535,27.0,-33.0,509.0,2.3907567362783166,-64.19794235085969
218.05666,2.872085366210939,0.4080877229295112,2.3436363751568825,125.12301404017175,1.0161935,-60.053956608580535,30.0,-31.0,507.0,2.378822363905979,-64.74939109408187
218.05649,2.413741860351564,0.4327671544906555,2.3410395321875552,125.12245224922891,1.0161935,-60.053956608580535,28.0,-33.0,506.0,2.380616928624387,-65.34556552921163
218.05595,2.130798134765626,0.4590634510785242,2.3154312874216334,125.12004086039016,1.0161935,-60.053956608580535,26.0,-32.0,509.0,2.360403099346589,-66.08842628155267
218.05498,2.2048337792968766,0.4493145363036233,2.288170116146515,125.10447170658163,1.0161935,-60.053956608580535,27.0,-32.0,509.0,2.331775518031649,-65.99947580249273
218.0545,2.428939614257814,0.4085503991291874,2.262707539635805,125.10586295132076,1.0161935,-60.053956608580535,30.0,-31.0,508.0,2.299219871829377,-65.12404728377271
218.0543,2.694625649414064,0.369491546032675,2.216048893179956,125.11355103773516,1.0254796,-60.00704598040526,26.0,-32.0,508.0,2.246580644749781,-64.34803961984896
218.05423,2.9674070214843766,0.3391697150932294,2.1791685110047325,125.11447947585788,1.0254796,-60.00704598040526,29.0,-33.0,508.0,2.205354796485163,-63.728062806432725
218.05441,2.781844887695314,0.3698484398304038,2.151682093895336,125.11118670369632,1.0254796,-60.00704598040526,29.0,-31.0,508.0,2.1831781114933944,-64.63759993528312
218.05386,2.167312416992189,0.4713740794502057,2.1055909599828078,125.11570983934598,1.0254796,-60.00704598040526,31.0,-32.0,508.0,2.157616041770417,-67.4976920609435
218.05391,2.4563291406250016,0.5489337241360631,2.081008017017824,125.11741139925962,1.0254796,-60.00704598040526,29.0,-32.0,508.0,2.1520671354921515,-69.65383952089189
218.0527,1.8225095605468769,0.620776552785078,2.084947588434892,125.10882785767006,1.0254796,-60.00704598040526,28.0,-29.0,508.0,2.1752448286191526,-71.46534875263599
218.05136,2.764602456054689,0.6223909643881401,2.09457470640262,125.08106026330692,1.0340167,-59.98257323371101,31.0,-30.0,507.0,2.1849311064225234,-71.46160257079009
218.0506,1.9411619042968769,0.5604747399865898,2.1107245883445405,125.06409456412425,1.0340167,-59.98257323371101,30.0,-30.0,508.0,2.1837404153953384,-69.80088220893661
218.04958,2.3873594140625016,0.4556340873417163,2.116891504637385,125.06234055256095,1.0340167,-59.98257323371101,30.0,-30.0,509.0,2.165283923997147,-67.07942131565375
218.04883,2.082122597656252,0.3534443114659447,2.08193714774503,125.07964565451871,1.0340167,-59.98257323371101,29.0,-31.0,507.0,2.111673599255513,-64.55138495790591
218.04825,2.2616269921875016,0.2893865230976972,1.9977115489512325,125.09202278457178,1.0340167,-59.98257323371101,33.0,-33.0,508.0,2.0185292496116976,-63.14722728208248
218.04846,3.0312803125000016,0.2350014157283316,1.9031744292187296,125.13286750260144,1.0340167,-59.98257323371101,34.0,-32.0,507.0,1.91760719996096,-61.9037830749047
218.0487,2.347823891601564,0.171887341071806,1.771229279171251,125.17076131925504,1.0417042,-59.9461857970455,29.0,-35.0,508.0,1.7795394875991168,-60.3703608221989
218.0484,2.604385170898439,0.0738967927380219,1.6645427527298062,125.19125727037952,1.0417042,-59.9461857970455,32.0,-33.0,509.0,1.6661804130928637,-57.34998687376375
218.04901,2.665206704101564,0.0134209870335434,1.586373796486734,125.22428413286056,1.0417042,-59.9461857970455,36.0,-35.0,509.0,1.586430509361367,-55.26031230546737
218.04918,2.319427285156252,-0.0136501270725334,1.5509680564201465,125.23269611624326,1.0417042,-59.9461857970455,34.0,-34.0,506.0,1.551028064229286,-54.26317778835065
218.04907,2.9085996484375016,-0.0706775469572774,1.5670724828192326,125.24889768737052,1.0417042,-59.9461857970455,33.0,-35.0,507.0,1.5686639224205987,-52.16936021719113
218.04973,2.773727211914064,-0.1277224788478126,1.6170135184963663,125.24274907755984,1.0417042,-59.9461857970455,32.0,-35.0,508.0,1.6220445225155196,-50.242212517925545
218.05019,2.679412636718752,-0.1618906378600366,1.670142496812673,125.2411793370458,1.0482243,-59.873031873644976,32.0,-36.0,508.0,1.677961518713193,-49.22385361936464
218.05107,2.615539345703126,-0.2033967558868546,1.7252974166966044,125.23554318875364,1.0482243,-59.873031873644976,32.0,-36.0,507.0,1.73723096407106,-48.04282937266766
218.0527,2.9744870996093766,-0.2497248636235764,1.811845976037959,125.22234183878358,1.0482243,-59.873031873644976,34.0,-36.0,506.0,1.8289519512137649,-46.93261803649547
218.0535,2.309280190429689,-0.2437418676427603,1.9024389160371065,125.2087973454906,1.0482243,-59.873031873644976,33.0,-40.0,499.0,1.9179667990415623,-47.49281130130432
218.05405,2.760543618164064,-0.1550904094662402,1.978384373931949,125.1745457434668,1.0482243,-59.873031873644976,30.0,-39.0,509.0,1.9844443935803064,-50.344827789649486
218.0545,2.186569008789064,-0.0061361027128528,2.0176522655864857,125.13983580462858,1.0541673,-59.78781927281282,29.0,-38.0,508.0,2.017661580732878,-54.68598831009378
218.05481,2.295089516601564,0.1752057729933184,2.004992696291052,125.09655534301918,1.0541673,-59.78781927281282,31.0,-35.0,509.0,2.012620849637941,-59.89552276428229
218.05533,3.069808754882814,0.3209761248597971,1.9562424207449527,125.05181735407304,1.0541673,-59.78781927281282,28.0,-32.0,508.0,1.982359715040008,-64.26266544340098
218.05493,1.8174436425781264,0.4466684122501931,1.8970842701220945,125.0044145672762,1.0541673,-59.78781927281282,29.0,-29.0,509.0,1.9488842777684785,-68.24015323521195
218.05458,2.616546425781252,0.5187336484240935,1.8413950496967089,124.9687438129314,1.0541673,-59.78781927281282,30.0,-33.0,507.0,1.912968884104968,-70.75940884981385
218.05505,2.573943886718752,0.5427106572464365,1.786636428780505,124.93516531837363,1.0541673,-59.78781927281282,33.0,-29.0,510.0,1.867142984220609,-71.95688739460061
218.05518,2.224105629882814,0.54239586003625,1.7595070462874451,124.9232272610353,1.0600541,-59.72621249755568,32.0,-29.0,510.0,1.8411106917146849,-72.20492500820811
218.05457,2.293044838867189,0.533600336162902,1.738461028972163,124.90523645120328,1.0600541,-59.72621249755568,30.0,-30.0,510.0,1.8184132454884017,-72.15355292889889
218.05377,2.249450478515626,0.5170223207489562,1.7550242990022096,124.88745905586144,1.0600541,-59.72621249755568,32.0,-31.0,509.0,1.829504885404723,-71.52284254877512
218.05313,2.957259926757814,0.538605638683406,1.8093603525542976,124.88746512880124,1.0600541,-59.72621249755568,31.0,-31.0,508.0,1.8877222756505048,-71.68486532012145
218.05298,2.231185708007814,0.5998714469470834,1.8839940391270504,124.88985172324692,1.0600541,-59.72621249755568,33.0,-30.0,508.0,1.9770586303675872,-72.76647198393519
218.0531,2.550628457031252,0.6359100679539981,1.9590694884432696,124.90090482426412,1.0600541,-59.72621249755568,30.0,-30.0,510.0,2.059539976445207,-73.0765556931438
218.05354,2.526290688476564,0.6344218616923657,2.014979444693953,124.92422735689873,1.0662884,-59.654245199660885,30.0,-29.0,509.0,2.112337560084101,-72.54642891016248
218.05373,2.098342690429689,0.5790186884678953,2.0707139148118228,124.9536113778696,1.0662884,-59.654245199660885,29.0,-30.0,507.0,2.1500082051594256,-70.66262425870792
218.05357,3.0201413964843766,0.4509607056103933,2.0962713052256703,124.99146532923302,1.0662884,-59.654245199660885,30.0,-30.0,511.0,2.1441446366340027,-67.1442552324525
218.054,3.032287392578126,0.3028498215022221,2.1233061726218976,125.02625737750412,1.0662884,-59.654245199660885,28.0,-31.0,508.0,2.1447562293557727,-63.08756863961855
218.05363,2.587142739257814,0.1784400970588703,2.194296612053884,125.07010660969398,1.0662884,-59.654245199660885,26.0,-32.0,506.0,2.201525894859993,-59.57670525765285
218.05342,2.313339028320314,0.0201307817361257,2.307219420161995,125.11681969305954,1.0662884,-59.654245199660885,26.0,-33.0,508.0,2.3073070505795434,-55.38281035591952
218.05269,2.6702878808593766,-0.142282175437273,2.420657182360036,125.16287180913366,1.0728006,-59.51554215529606,26.0,-36.0,509.0,2.42482520489404,-51.475238786243374
218.05225,2.243362221679689,-0.2529575137012129,2.501197371524005,125.18840191422927,1.0728006,-59.51554215529606,25.0,-37.0,508.0,2.513923896968023,-49.04025676831789
218.05263,2.604385170898439,-0.3455987484655597,2.5515560342986507,125.1939718272086,1.0728006,-59.51554215529606,27.0,-38.0,504.0,2.574793423393705,-47.09741627385099
218.0534,2.640884194335939,-0.4338753336395371,2.552920996368795,125.19664040476322,1.0728006,-59.51554215529606,24.0,-40.0,504.0,2.589431521056952,-45.16404208547564
218.05402,2.493850502929689,-0.5226586289779718,2.489719659172672,125.21217961329565,1.0728006,-59.51554215529606,27.0,-39.0,505.0,2.543853165708022,-42.93899647774697
218.05502,2.616546425781252,-0.6337163199155244,2.422010184662443,125.22669586067924,1.0728006,-59.51554215529606,26.0,-39.0,507.0,2.503352504212154,-40.118417005200286
218.05606,2.405624184570314,-0.7851529694230203,2.38549902535509,125.23526720709928,1.0797917,-59.267619231496525,26.0,-40.0,505.0,2.51110479390426,-36.55527875665487
218.05695,2.708816323242189,-0.8855341639707652,2.3865503760088864,125.25470570907504,1.0797917,-59.267619231496525,27.0,-42.0,504.0,2.5451878415303555,-34.39714606394514
218.05762,2.682464394531252,-0.9103901776235666,2.4036717388251567,125.27254590243352,1.0797917,-59.267619231496525,29.0,-42.0,504.0,2.5699231674640277,-33.99282137963709
218.05856,2.454284462890626,-0.879534101885589,2.419000506849438,125.27443407929424,1.0797917,-59.267619231496525,29.0,-42.0,503.0,2.573578627225037,-34.75409240065315
218.05847,2.536422524414064,-0.8133892137450475,2.415245250495553,125.27743484198592,1.0797917,-59.267619231496525,31.0,-43.0,502.0,2.5482240114005523,-36.11953599391765
218.05843,2.339706215820314,-0.8278954856856682,2.386746107713089,125.2676108855154,1.0797917,-59.267619231496525,28.0,-42.0,505.0,2.5259421164955325,-35.61118777910385
218.05806,1.914779458007814,-0.9089404907374504,2.34251591125603,125.2688221229832,1.0872936,-58.93402149758384,28.0,-42.0,506.0,2.512312480523826,-33.53313045229603
218.05815,2.664199624023439,-1.001060184627654,2.29933157317468,125.27885097675193,1.0872936,-58.93402149758384,30.0,-43.0,504.0,2.507368599282481,-31.203407089092124
218.05916,2.606399331054689,-1.136186678318319,2.2738245670620216,125.28519431406306,1.0872936,-58.93402149758384,30.0,-42.0,505.0,2.541355946839956,-28.173410698134223
218.0599,2.597274575195314,-1.2932720951282293,2.224501709868769,125.29224044209232,1.0872936,-58.93402149758384,28.0,-45.0,504.0,2.572470077458666,-24.54334864866696
218.06012,2.485732827148439,-1.467619234602012,2.148819764818327,125.28666029418532,1.0872936,-58.93402149758384,27.0,-46.0,504.0,2.6014029274954784,-20.38739000226996
218.05981,2.486739907226564,-1.6611378414170077,2.0642195076238616,125.27702837205418,1.0872936,-58.93402149758384,27.0,-48.0,502.0,2.648699786617609,-15.902589492452035
218.05862,2.575988564453126,-1.7709758245829974,1.9788573322371452,125.2617390915226,1.0951842,-58.536976181468525,32.0,-48.0,504.0,2.654665448235892,-12.913604482700276
218.05754,2.756484780273439,-1.8340636690966,1.9368344987851445,125.26279027548922,1.0951842,-58.536976181468525,31.0,-52.0,500.0,2.6664578793446374,-11.299469983359137
218.05681,2.319427285156252,-1.7840574611989364,1.9319395507000776,125.23548298205272,1.0951842,-58.536976181468525,32.0,-51.0,500.0,2.628769930914866,-12.04505573280998
218.05519,2.023299965820314,-1.592950252944951,1.9685030293576964,125.19922118818594,1.0951842,-58.536976181468525,31.0,-48.0,503.0,2.53150247897844,-15.824139951612532
218.05405,2.487746987304689,-1.30563189648073,2.074095717520588,125.16750574114567,1.0951842,-58.536976181468525,29.0,-48.0,505.0,2.45021873736179,-22.64911875254383
218.05353,2.415756020507814,-0.9905245601069655,2.2219832883216486,125.14051198587084,1.0951842,-58.536976181468525,30.0,-45.0,505.0,2.4323615875573465,-30.841502296046208
218.05275,2.742278847656252,-0.5230077269994843,2.3876255107172684,125.12079674937898,1.1031536,-58.14035273291246,29.0,-42.0,505.0,2.4441071726083385,-42.53035159768644
218.05206,2.3214414453125016,-0.0623295867260963,2.522365170885938,125.1001983361962,1.1031536,-58.14035273291246,24.0,-37.0,509.0,2.523133171854787,-53.485180540274776
218.05193,2.5780027246093766,0.2957414621929124,2.586413587327851,125.07619179503628,1.1031536,-58.14035273291246,26.0,-35.0,509.0,2.60322124631982,-61.4425833660214
218.0518,2.523254189453126,0.5184954139420735,2.565951052805404,125.06313434279804,1.1031536,-58.14035273291246,22.0,-31.0,508.0,2.617675324694128,-66.35352352310446
218.05179,2.530349526367189,0.6359868685422232,2.4760754358053783,125.04157826945683,1.1031536,-58.14035273291246,26.0,-30.0,505.0,2.5562516748561137,-69.35557538549249
218.05206,2.255538735351564,0.7706830655355046,2.368024813912142,125.05131097580932,1.1031536,-58.14035273291246,26.0,-29.0,506.0,2.490008512238728,-72.96778727120561
218.05264,1.7393491601562516,1.2552011522584097,2.2416405452265398,125.06550488248848,1.110705,-57.84671677321359,23.0,-26.0,510.0,2.568515108459613,-84.17247612201314
218.05273,2.431991372070314,2.00011429393807,2.164342082650378,125.08438796314611,1.110705,-57.84671677321359,26.0,-21.0,512.0,2.945714230469201,-97.65530496439985
218.05244,2.562804970703126,3.083522933104325,2.144423497120579,125.09570007356268,1.110705,-57.84671677321359,27.0,-15.0,512.0,3.753524212327123,-110.1011752688528
218.05173,2.546584877929689,4.370070017534299,2.1636260705213606,125.07387090612409,1.110705,-57.84671677321359,33.0,-5.0,515.0,4.87263848229828,-118.61946198219964
218.05292,2.430969033203126,5.760347365414084,2.185617385888072,125.0415469656908,1.110705,-57.84671677321359,31.0,7.0,514.0,6.155851301766159,-124.23537538045878
218.0547,1.978683266601564,6.843260661951009,2.189653000981833,125.02450972562184,1.110705,-57.84671677321359,31.0,13.0,517.0,7.178738863708383,-127.30338504349228
218.05658,2.006072792968752,7.84086087433451,2.171476723609476,125.0066188856087,1.1168901,-57.63875590544999,34.0,25.0,518.0,8.128825821481929,-129.59878012557326
218.05733,2.349838051757814,8.59976727702568,2.095897201573947,125.0076398561924,1.1168901,-57.63875590544999,34.0,33.0,519.0,8.84411359254431,-131.3888343717109
218.05786,2.831527504882814,9.06734125326725,2.024376051370087,124.99260392222118,1.1168901,-57.63875590544999,33.0,37.0,519.0,9.283299826305557,-132.518825396461
218.05763,2.503997597656252,9.44301422478318,1.9660499525248023,124.99050958389186,1.1168901,-57.63875590544999,31.0,43.0,519.0,9.638349519637918,-133.34773635262113
218.05759,2.428939614257814,9.669626004630247,1.892941662985371,125.00385402761545,1.1168901,-57.63875590544999,36.0,48.0,521.0,9.846357092533507,-134.01879608201153
218.05725,2.535415444335939,9.65199142862899,1.8282560400883112,125.0277955441326,1.1168901,-57.63875590544999,34.0,48.0,519.0,9.81726888992235,-134.34225394198674
218.05673,2.425887856445314,8.992961146301727,1.8591407294368336,125.02953358512016,1.1216116,-57.44105223123417,35.0,46.0,517.0,9.177015931864712,-133.37959879632672
218.05591,2.694625649414064,7.491028222117002,1.950977972166145,125.04065549123705,1.1216116,-57.44105223123417,35.0,38.0,522.0,7.735362175408552,-130.43578059509923
218.05565,2.757507119140626,5.8019337200528005,2.00925731399679,125.08084299580408,1.1216116,-57.44105223123417,33.0,20.0,519.0,6.135524325610557,-125.8711425681587
218.05547,2.065887246093752,4.263971030083943,1.9977589189237823,125.13562971779255,1.1216116,-57.44105223123417,31.0,13.0,518.0,4.7056470014060805,-119.79205756789196
218.05551,2.650008950195314,2.274775783663724,1.9577923617915172,125.20499780433956,1.1216116,-57.44105223123417,31.0,-4.0,515.0,2.999918457975051,-104.0818358672832
218.05528,2.8426816796875016,0.5019096654583071,1.9052498039879548,125.26525982690364,1.1216116,-57.44105223123417,28.0,-23.0,509.0,1.9701570837075049,-69.4883139432353
218.0554,2.888320717773439,-0.9150204535730504,1.7942075415256793,125.30123925937782,1.1258185,-57.040415684566085,29.0,-33.0,508.0,2.0137897289943214,-27.683432304353072
218.05542,2.766616616210939,-1.9646813558645184,1.722197014204889,125.33962007089494,1.1258185,-57.040415684566085,30.0,-45.0,505.0,2.611759972973993,-5.894902123672749
218.05576,2.7889402246093766,-2.9982827380899737,1.6780100334701429,125.3589951840942,1.1258185,-57.040415684566085,32.0,-57.0,502.0,3.434407382908996,6.140448123168726
218.05574,2.479659829101564,-3.751197257936898,1.639198455415335,125.37321934756122,1.1258185,-57.040415684566085,32.0,-63.0,502.0,4.091837437777,11.793171280836654
218.056,2.790954384765626,-4.291664571362345,1.6327088921660502,125.37546805400302,1.1258185,-57.040415684566085,35.0,-72.0,495.0,4.589579846835515,14.577275380808013
218.05551,2.514129433593752,-4.643333691784898,1.6331961257819758,125.3695914442846,1.1258185,-57.040415684566085,31.0,-74.0,498.0,4.919817352551222,16.02576640717827
218.05518,2.919738564453126,-5.011429944797802,1.6846116339050767,125.36485507781906,1.1303755,-56.44788624138798,31.0,-76.0,498.0,5.284270754023421,16.82376935706719
218.05733,2.9744870996093766,-5.292751004615889,1.77496990653724,125.35962745086628,1.1303755,-56.44788624138798,11.0,-84.0,497.0,5.579251699573144,16.863960370248414
218.05893,1.6835630273437516,-5.532562847158297,1.9109826606259848,125.3552164176449,1.1303755,-56.44788624138798,23.0,-83.0,494.0,5.849438795520589,16.34843847508166
218.05998,2.628722939453126,-5.680129589388248,2.015480352421035,125.33783584801044,1.1303755,-56.44788624138798,17.0,-86.0,494.0,6.022714135453544,15.853407648261896
218.06062,2.5546872949218766,-5.73184783957873,2.1409522501291667,125.32090772493784,1.1303755,-56.44788624138798,8.0,-91.0,496.0,6.113667303733597,14.893304617023194
218.06068,2.180496010742189,-5.676649428843465,2.255192499763719,125.3031044331339,1.1303755,-56.44788624138798,4.0,-91.0,495.0,6.1027896329473394,13.690666289928602
218.06143,2.584090981445314,-5.555129023817431,2.302452822494142,125.2898811856076,1.1355006,-55.87808936062998,2.0,-91.0,494.0,6.0078827110231225,12.829859152879768
218.06194,2.7534482812500016,-5.395629036750211,2.3103717511284168,125.26902194690476,1.1355006,-55.87808936062998,8.0,-87.0,497.0,5.864113995592241,12.138872210708314
218.06236,2.121673378906252,-5.162537295633056,2.287630956361868,125.23202519669262,1.1355006,-55.87808936062998,8.0,-84.0,498.0,5.641689706362879,11.379091217426074
218.0626,2.480666909179689,-4.871874293374741,2.233892097166019,125.207148057939,1.1355006,-55.87808936062998,20.0,-79.0,497.0,5.355140391706421,10.61572974901954
218.06184,2.3741758203125016,-4.462749576534991,2.154020167573842,125.18704734136044,1.1355006,-55.87808936062998,20.0,-77.0,497.0,4.9516199644082,9.456831027468146
218.06107,2.3072507714843766,-4.013521912995957,2.067510896940094,125.17254903219522,1.1355006,-55.87808936062998,29.0,-72.0,497.0,4.511660062984088,7.9459672167610575
218.05971,2.535415444335939,-3.526172648655161,1.991700984290348,125.15804734452703,1.1410425,-55.41214334123078,30.0,-66.0,501.0,4.047317814850924,5.719937696391818
218.05875,2.580047402343752,-3.131980221571218,1.9629183891428283,125.14541083805928,1.1410425,-55.41214334123078,34.0,-64.0,500.0,3.6941884839970527,3.0842472529007483
218.05762,2.995803627929689,-2.7887003201279428,1.9884418325712367,125.1591102592058,1.1410425,-55.41214334123078,30.0,-60.0,502.0,3.4231977835651497,-0.320579227989467
218.05629,2.434005532226564,-2.6338101629352044,2.0229326627830284,125.14558977674972,1.1410425,-55.41214334123078,31.0,-57.0,504.0,3.3192922937758014,-2.372949559754304
218.05527,2.6865232324218766,-2.522542399858199,2.036945640426341,125.1295991307758,1.1410425,-55.41214334123078,30.0,-55.0,505.0,3.2406266293189203,-3.784873985853864
218.05399,2.2545163964843766,-2.410143174343073,2.0764789476564123,125.11641933551164,1.1410425,-55.41214334123078,33.0,-55.0,500.0,3.1796851136891915,-5.626088064033276
218.05252,2.614517006835939,-2.217260611695383,2.1287673539591023,125.11239830867882,1.1464733,-55.049622540148725,25.0,-54.0,504.0,3.0722726107375204,-8.719995091451072
218.05147,2.520202431640626,-1.971373091180722,2.146199052160673,125.09556073466013,1.1464733,-55.049622540148725,26.0,-54.0,501.0,2.9129402157352446,-12.337759910328836
218.05055,3.077941689453126,-1.7687712297474216,2.1244725051740683,125.0716069954789,1.1464733,-55.049622540148725,28.0,-48.0,505.0,2.7633686796124763,-15.152620044741148
218.04984,2.221053872070314,-1.538489813135151,2.0768788605678195,125.0614327314926,1.1464733,-55.049622540148725,32.0,-49.0,503.0,2.5838409505657736,-18.414043618143097
218.0489,2.408660683593752,-1.313379747311402,2.046663674170022,125.0770240658406,1.1464733,-55.049622540148725,32.0,-47.0,504.0,2.431227341546958,-22.240497143179635
218.04837,3.1864316796875016,-1.1468359004823685,2.044424666887089,125.1035668733788,1.1464733,-55.049622540148725,32.0,-44.0,503.0,2.343645422352769,-25.612961338873635
218.04803,2.659133706054689,-1.0552868064316197,2.04329091550144,125.12299136249416,1.1515874,-54.74070701186521,32.0,-42.0,502.0,2.299300127148863,-27.569533636426343
218.04745,2.4461973046875016,-0.9738223003196828,2.0645213942887426,125.15673883394726,1.1515874,-54.74070701186521,32.0,-43.0,503.0,2.282309800782605,-29.597732680556778
218.04659,2.181503090820314,-0.9064356193956415,2.1156857753147524,125.17332513318196,1.1515874,-54.74070701186521,32.0,-42.0,505.0,2.3013603095867685,-31.642345876185697
218.04585,2.559753212890626,-0.8936582414769075,2.186024359595932,125.19890993211622,1.1515874,-54.74070701186521,30.0,-41.0,505.0,2.361308699198492,-32.574200849046655
218.04582,2.945083413085939,-0.9364410873381978,2.2262163108598467,125.21152242954346,1.1515874,-54.74070701186521,30.0,-42.0,506.0,2.4147872178036027,-31.98327278077504
218.04555,1.5780790185546891,-1.0025368040566525,2.256656560490909,125.21353674600748,1.1515874,-54.74070701186521,30.0,-43.0,506.0,2.468907021612765,-30.841740500586965
218.0458,3.1397703027343766,-1.077181995976875,2.281250732882023,125.20660248854774,1.1563512,-54.452529049879104,29.0,-43.0,504.0,2.522295721395095,-29.52630787135924
218.0473,2.4522703027343766,-1.162650195097921,2.267815954845614,125.18045250487988,1.1563512,-54.452529049879104,27.0,-42.0,504.0,2.547925382096264,-27.685471861448057
218.04869,2.526290688476564,-1.291372742761161,2.173030321027796,125.1494079627113,1.1563512,-54.452529049879104,27.0,-44.0,503.0,2.527154323801534,-24.136536312839358
218.05069,2.835586342773439,-1.379683749592154,2.0558626888695155,125.12604388220429,1.1563512,-54.452529049879104,27.0,-43.0,505.0,2.4752442104836505,-21.014759703044263
218.05174,2.845718178710939,-1.4115217004430538,1.9655169882752397,125.12267900269556,1.1563512,-54.452529049879104,28.0,-45.0,504.0,2.419199660178857,-19.198737844772644
218.05338,3.4713437890625016,-1.3952189597476794,1.8980465989682245,125.1283830667293,1.1563512,-54.452529049879104,31.0,-47.0,503.0,2.3550734217679623,-18.557297667273875
218.05568,2.8690488671875016,-1.3191530559415876,1.8517251740342175,125.144613110568,1.1610693,-54.15307088965164,28.0,-45.0,505.0,2.273022059339496,-19.39428708728449
218.05714,2.2616269921875016,-1.1432498719748712,1.901354282566717,125.14571025400016,1.1610693,-54.15307088965164,32.0,-44.0,507.0,2.2181638011029814,-23.84249110786286
218.05782,2.715926918945314,-0.9306092287573908,2.0255089427341795,125.1621973908909,1.1610693,-54.15307088965164,32.0,-43.0,504.0,2.228739098357757,-30.168785720956365
218.05864,2.085174355468752,-0.7666346485854186,2.085253423598886,125.16534312928118,1.1610693,-54.15307088965164,31.0,-42.0,507.0,2.221479979933194,-34.65600484546905
218.05855,2.372146401367189,-0.6087249656602514,2.165782494243639,125.17115810614412,1.1610693,-54.15307088965164,29.0,-39.0,509.0,2.249545395388237,-39.13659219094917
218.05865,2.716933999023439,-0.4968427537398107,2.294607090100341,125.15873147276751,1.1610693,-54.15307088965164,32.0,-38.0,505.0,2.347668407695933,-42.62986806737624
218.05873,2.7493894433593766,-0.4448625487792287,2.3724121355770187,125.1507911321696,1.165672,-53.861274691163935,26.0,-39.0,508.0,2.4136673369133765,-44.23445447201956
218.05936,2.935958657226564,-0.4526050522751683,2.401018061741668,125.15717573315676,1.165672,-53.861274691163935,26.0,-38.0,509.0,2.443206876015399,-44.17341546401832
218.05951,2.310287270507814,-0.5015383879013566,2.4060131790105426,125.16504926866617,1.165672,-53.861274691163935,28.0,-36.0,505.0,2.4576104808023387,-43.06657949543831
218.06,2.159194741210939,-0.5736503870602071,2.374283278754957,125.1633009435311,1.165672,-53.861274691163935,27.0,-38.0,506.0,2.442446123899619,-41.26083101437612
218.06078,2.8548581933593766,-0.7440070876095007,2.2704674855893536,125.1510224243066,1.165672,-53.861274691163935,25.0,-39.0,504.0,2.3890188649522965,-36.71350318608201
218.06169,2.618575844726564,-0.9678450947132244,2.12266965619423,125.15632814225836,1.1701694,-53.57821456357769,27.0,-40.0,505.0,2.332538903391741,-30.340587847357376
218.06277,3.223953041992189,-1.1883063091422643,1.9872596200351125,125.1488076943219,1.1701694,-53.57821456357769,28.0,-42.0,503.0,2.3149534582234823,-23.9798638189622
218.06297,2.919738564453126,-1.3221220400193845,1.8644574554644364,125.15235980705177,1.1701694,-53.57821456357769,32.0,-45.0,506.0,2.285113172131652,-19.511211407976937
218.06287,2.332610878906252,-1.386673996643444,1.776926227783974,125.17387472323472,1.1701694,-53.57821456357769,33.0,-46.0,505.0,2.253412413097394,-16.86191908150416
218.06259,2.175430092773439,-1.284062227735139,1.7529177115523047,125.1699455312414,1.1701694,-53.57821456357769,31.0,-45.0,506.0,2.172436421688258,-18.610164772190508
218.06291,2.5851133203125016,-1.0862790546594308,1.7770081708361574,125.17724967279185,1.1701694,-53.57821456357769,29.0,-44.0,507.0,2.082365910422034,-23.390568997971727
218.06314,2.895400795898439,-0.9358067337971124,1.8297916622885904,125.19249582825616,1.1744151,-53.28500347534053,31.0,-42.0,504.0,2.054916452708877,-27.7268614186134
218.06361,3.476424965820314,-0.7597489461350041,1.9124524597567696,125.18817941454677,1.1744151,-53.28500347534053,31.0,-41.0,509.0,2.0576287187333366,-33.15181612288929
218.06401,2.4958799218750016,-0.5799139336365756,1.993617653685228,125.1952815966785,1.1744151,-53.28500347534053,30.0,-39.0,506.0,2.0761187305554745,-38.59146255324263
218.06439,2.916686806640626,-0.4194987516452086,2.03107084581235,125.2056125031609,1.1744151,-53.28500347534053,31.0,-39.0,507.0,2.073869165931376,-43.12912457610816
218.0644,2.4492185449218766,-0.2568033449874742,2.0405545159061456,125.20647092140216,1.1744151,-53.28500347534053,24.0,-35.0,510.0,2.0566232591166336,-47.623531642681385
218.06453,2.7270810937500016,-0.1602098257599454,2.0460616089526957,125.19986223105693,1.1744151,-53.28500347534053,27.0,-34.0,506.0,2.052313738321066,-50.32480778281079
218.06439,2.290023598632814,-0.1281774014162976,2.048357073019239,125.19231596805068,1.178753,-53.02542553503449,25.0,-32.0,507.0,2.052356734131304,-51.22854429346165
218.06516,2.835586342773439,-0.1565829184735361,2.012061513719135,125.18306599400972,1.178753,-53.02542553503449,25.0,-34.0,506.0,2.0181351428222407,-50.36883408960362
218.06554,2.549606118164064,-0.2501106125695634,1.9827141654786808,125.18955043108716,1.178753,-53.02542553503449,30.0,-37.0,510.0,1.998402101520508,-47.62361060695175
218.06683,2.9217832421875016,-0.3167552569734376,1.9534835679775857,125.17623667745995,1.178753,-53.02542553503449,28.0,-36.0,509.0,1.9789584437241177,-45.61689167014695
218.06789,2.538467202148439,-0.3009992302919671,1.9456601862127572,125.17796199788025,1.178753,-53.02542553503449,28.0,-35.0,508.0,1.968769888546322,-46.03117837031184
218.0689,2.6469724511718766,-0.2686528624987988,2.011619020510591,125.17774025909708,1.178753,-53.02542553503449,28.0,-36.0,508.0,2.0294498992094487,-47.21842169427171
218.06943,2.318404946289064,-0.2580240153721168,2.083766995314784,125.18000359209852,1.1831356,-52.78920097414907,30.0,-36.0,507.0,2.0996532922319364,-47.76426781471184
218.06984,2.601333413085939,-0.3006760133050492,2.1416051836175023,125.16130078058583,1.1831356,-52.78920097414907,29.0,-36.0,506.0,2.162570353221531,-46.85035459882656
218.06996,2.899459633789064,-0.3647224463300792,2.2056868986459834,125.13759031492096,1.1831356,-52.78920097414907,28.0,-36.0,506.0,2.2355792319120904,-45.47762887821894
218.06943,1.965499672851564,-0.4117860657108548,2.244405868511005,125.12659904598983,1.1831356,-52.78920097414907,27.0,-36.0,508.0,2.281792892489657,-44.48187335627091
218.0696,2.850799355468752,-0.4419315925196658,2.1965539697170806,125.11491836187466,1.1831356,-52.78920097414907,28.0,-36.0,508.0,2.240484418977692,-43.514640405932
218.06958,2.411697182617189,-0.5057623183348727,2.106403171098376,125.10358976386392,1.1831356,-52.78920097414907,30.0,-39.0,508.0,2.1661646275569155,-41.40039892398044
218.06918,2.329559121093752,-0.5767803014312518,2.013309168282089,125.08538275390984,1.1876336,-52.55286593147052,28.0,-39.0,506.0,2.094168566804805,-38.934203301053344
218.06888,2.500945839843752,-0.6606874510093508,1.8865105515219576,125.06295092455882,1.1876336,-52.55286593147052,24.0,-39.0,506.0,1.998699421296906,-35.64161161910612
218.06902,2.460387978515626,-0.7348795898322771,1.774627792062234,125.06562758961196,1.1876336,-52.55286593147052,33.0,-40.0,500.0,1.9205888175133,-32.44512179576902
218.06897,2.391418251953126,-0.8093931393997961,1.7132470796526014,125.0778123549282,1.1876336,-52.55286593147052,33.0,-38.0,512.0,1.8946113638580744,-29.639751855945885
218.06886,2.520202431640626,-0.8409689721526563,1.6809354871984648,125.0923451547701,1.1876336,-52.55286593147052,32.0,-40.0,509.0,1.8793514096740287,-28.33386976445288
218.06908,3.089080605468752,-0.8162666177356857,1.6363168199042537,125.11602065072076,1.1876336,-52.55286593147052,33.0,-42.0,509.0,1.8284145298365777,-28.376620384921523
218.06915,2.702743325195314,-0.7877585820485637,1.6263283790003318,125.13683045351593,1.1921275,-52.29993252082293,30.0,-39.0,506.0,1.806887172140295,-29.02323862890261
218.06941,2.236251625976564,-0.7751232593026915,1.6507460980042652,125.14985720854794,1.1921275,-52.29993252082293,30.0,-38.0,510.0,1.8234895427699789,-29.702056478282724
218.06995,2.368087563476564,-0.7266893579321146,1.713824883056415,125.15928478129436,1.1921275,-52.29993252082293,34.0,-39.0,507.0,1.8613552852872888,-31.86802644601784
218.07013,2.357955727539064,-0.6545898419240713,1.762430159809659,125.14455011766763,1.1921275,-52.29993252082293,31.0,-40.0,506.0,1.879922241939044,-34.48487340358091
218.07068,2.810226235351564,-0.6463815300486893,1.788422824502925,125.12094432690732,1.1921275,-52.29993252082293,28.0,-37.0,510.0,1.901505405084692,-35.01308216372097
218.0713,2.777786049804689,-0.6688728341404675,1.822418505836991,125.07311987437828,1.1921275,-52.29993252082293,27.0,-38.0,509.0,1.9411328944780195,-34.777898496275895
218.0715,2.250457558593752,-0.65378867078841,1.8539875039782172,125.01956015257292,1.1967365,-52.052330947255165,29.0,-38.0,506.0,1.965734695958864,-35.56128470278057
218.07101,2.3802793359375016,-0.6267447516325705,1.9260296154890253,124.96626457082849,1.1967365,-52.052330947255165,29.0,-39.0,508.0,2.0252919753830074,-37.01413040348452
218.0711,2.5617978906250016,-0.5676572930190604,2.0414241152745296,124.93214052176582,1.1967365,-52.052330947255165,25.0,-38.0,508.0,2.118750140873557,-39.534020189920994
218.0714,2.613509926757814,-0.4672591200752404,2.1694609701304075,124.89476730075567,1.1967365,-52.052330947255165,25.0,-39.0,509.0,2.2191157984415435,-42.95590350510904
218.07118,2.957259926757814,-0.3682846499196304,2.2376164493507065,124.8631142634556,1.1967365,-52.052330947255165,29.0,-38.0,505.0,2.2676607644366484,-45.795028530175294
218.07109,2.319427285156252,-0.2737438930133899,2.2415246582702157,124.82972630214331,1.1967365,-52.052330947255165,29.0,-36.0,509.0,2.258144305745373,-48.21102882576128
218.07094,2.6317441796875016,-0.1925739200204426,2.2121019544194414,124.80784724394566,1.2016872,-51.83669723730278,27.0,-36.0,509.0,2.220451782770672,-50.21926916529016
218.07149,2.919738564453126,-0.0688754317461926,2.192508505028596,124.78317000779734,1.2016872,-51.83669723730278,26.0,-36.0,508.0,2.1935879545352117,-53.41840978071993
218.07185,2.963348183593752,0.0527990583654563,2.144732417253599,124.75947454219224,1.2016872,-51.83669723730278,27.0,-35.0,507.0,2.1453810098577573,-56.650091004333454
218.07242,2.6378476953125016,0.1322672170646079,2.0722790284526966,124.7560197256295,1.2016872,-51.83669723730278,28.0,-32.0,509.0,2.0764885008533285,-58.894458425699
218.07242,2.834548745117189,0.2021410700628074,1.9303139951100343,124.7685201472793,1.2016872,-51.83669723730278,29.0,-33.0,509.0,1.940853247356348,-61.207442016573815
218.0721,3.122543129882814,0.2246896938480387,1.806270357588484,124.80331563923554,1.2016872,-51.83669723730278,30.0,-32.0,511.0,1.8201733972284584,-62.28523732131522
218.07216,2.925826821289064,0.2449594322836948,1.7176383393184578,124.84119473973146,1.2066594,-51.64381668560274,33.0,-33.0,509.0,1.7349970366871066,-63.27290946334693
218.07166,2.2048337792968766,0.2115163252874409,1.6914396058643315,124.87165636183404,1.2066594,-51.64381668560274,29.0,-32.0,507.0,1.7045982316799864,-62.25422335831018
218.07104,2.751403603515626,0.0943036798108588,1.7786813101393342,124.90815821732916,1.2066594,-51.64381668560274,32.0,-33.0,509.0,1.7811762868991838,-58.12578745076852
218.07028,2.8649900292968766,-0.0752352562299404,1.8728186367448312,124.93580602360096,1.2066594,-51.64381668560274,30.0,-33.0,512.0,1.874327060710548,-52.764550233623936
218.07018,2.728088173828126,-0.3139891330454529,1.916617621480816,124.98693562526988,1.2066594,-51.64381668560274,30.0,-36.0,509.0,1.9421290561515396,-45.712570097886825
218.0699,2.3802793359375016,-0.5535630454492343,1.945562815581299,125.00540556055785,1.2066594,-51.64381668560274,31.0,-35.0,508.0,2.0226655415238066,-39.11749593412991
218.06926,2.481673989257814,-0.8374189601895535,1.9791466295895108,125.04098298245422,1.2114868,-51.41778982428189,29.0,-39.0,508.0,2.1487617332951974,-32.03147871416901
218.0688,2.932922158203126,-1.1119864955939245,1.9842862192510056,125.08263069015872,1.2114868,-51.41778982428189,29.0,-40.0,508.0,2.274187732256149,-25.65796693032095
218.06917,2.871063027343752,-1.3575479122148697,1.993605932301049,125.1208737754976,1.2114868,-51.41778982428189,30.0,-44.0,504.0,2.4113126143735397,-20.631953194590253
218.06947,2.353896889648439,-1.5452895636386763,2.0074436380088407,125.13704548679272,1.2114868,-51.41778982428189,30.0,-45.0,504.0,2.5325570233156545,-17.279223841023008
218.06929,2.510070595703126,-1.6736810010252423,1.9812846187539643,125.1307457896894,1.2114868,-51.41778982428189,30.0,-48.0,507.0,2.59272734967393,-14.683183076580343
218.06952,2.3346250390625016,-1.770414769914366,1.9488411994663375,125.11766317812317,1.2114868,-51.41778982428189,26.0,-50.0,504.0,2.632018314604748,-12.630843411322438
218.06885,2.293044838867189,-1.8090758092500216,1.9338955567977385,125.09686484152832,1.216224,-51.13315217949408,31.0,-50.0,505.0,2.647213837295066,-11.814470497616782
218.06903,2.887283120117189,-1.7638556634849971,1.9614360674556957,125.0683671246348,1.216224,-51.13315217949408,33.0,-48.0,502.0,2.636960703259908,-12.969747039259062
218.06934,2.622619423828126,-1.6007366135497618,2.0805664215484985,125.04670426955376,1.216224,-51.13315217949408,29.0,-48.0,505.0,2.6242358677871604,-17.384466956174418
218.06955,2.5080564355468766,-1.278781557985284,2.239550505117158,125.02063897905848,1.216224,-51.13315217949408,26.0,-47.0,507.0,2.578282517842512,-25.26149989446409
218.06937,2.626678261718752,-0.9042842768559104,2.33325382678469,124.98029098018316,1.216224,-51.13315217949408,28.0,-44.0,504.0,2.5019986048740197,-33.844262306259395
218.0697,2.589156899414064,-0.4926953900054874,2.3685087417815502,124.92045051750983,1.216224,-51.13315217949408,24.0,-39.0,507.0,2.41909689505926,-43.33473613312102
218.07004,2.932922158203126,-0.1286511844558355,2.3496387941635355,124.8952918067574,1.2206635,-50.84655363406194,26.0,-38.0,506.0,2.3531503368433397,-51.97243564870226
218.06976,2.360000405273439,0.0873503188121832,2.279360814461777,124.87113856615832,1.2206635,-50.84655363406194,27.0,-33.0,506.0,2.2810304058007507,-57.32233774441422
218.06958,2.9014890527343766,0.2065989515779868,2.097868305185345,124.87436392309432,1.2206635,-50.84655363406194,28.0,-35.0,509.0,2.1079986493897787,-60.74753949113764
218.06944,2.986663613281252,0.1953018413684155,1.9083378321734197,124.8721802399685,1.2206635,-50.84655363406194,28.0,-33.0,508.0,1.9182908287426024,-60.96907876952365
218.06958,3.153976235351564,0.1010253502964352,1.753227266594207,124.87491531272428,1.2206635,-50.84655363406194,30.0,-33.0,508.0,1.7561318953087592,-58.42194063227124
218.06946,3.642715249023439,-0.0198391348314803,1.6009369025754812,124.88369654519184,1.2206635,-50.84655363406194,30.0,-34.0,511.0,1.6010596952435157,-54.40650360709738
218.06917,2.431991372070314,-0.1349153146509868,1.507438093473095,124.88870261966454,1.2245224,-50.59977758572538,30.0,-34.0,509.0,1.5134579458975508,-49.998131128623214
218.06837,2.664199624023439,-0.2105703861734432,1.4667671001159213,124.89536489915776,1.2245224,-50.59977758572538,35.0,-36.0,508.0,1.481791780754229,-46.93674588146784
218.06746,2.9907224511718766,-0.2656209947131092,1.48710140931892,124.8833841859216,1.2245224,-50.59977758572538,30.0,-35.0,511.0,1.5106163521634572,-44.9915922108332
218.06706,2.782851967773439,-0.3192244260614518,1.555885047312658,124.87906491906529,1.2245224,-50.59977758572538,31.0,-36.0,509.0,1.5882639447152564,-43.52899464077834
218.0667,2.5323789453125016,-0.3604546188242733,1.6255360090064737,124.87294443532328,1.2245224,-50.59977758572538,33.0,-35.0,508.0,1.6649791186552494,-42.62739154730676
218.0665,2.702743325195314,-0.3776616700221138,1.6870589187460276,124.85966913508186,1.2245224,-50.59977758572538,31.0,-36.0,507.0,1.728765839542427,-42.52559361077589
218.0661,2.2808835839843766,-0.3748445439377466,1.750404979853909,124.84438617697748,1.2276692,-50.35179822213953,33.0,-36.0,506.0,1.7900422495433648,-43.07192075442559
218.0656,2.454284462890626,-0.3368281677490485,1.7763188483757255,124.83458710995784,1.2276692,-50.35179822213953,26.0,-35.0,510.0,1.8079315639017104,-44.431620001644376
218.06535,2.713882241210939,-0.3386044571362592,1.802260892043772,124.82131012217428,1.2276692,-50.35179822213953,33.0,-37.0,509.0,1.8337519242589069,-44.54144424538637
218.0652,2.510070595703126,-0.3863095383161494,1.817830102468376,124.82170453411776,1.2276692,-50.35179822213953,30.0,-37.0,508.0,1.8583705624239168,-43.184506472935546
218.06506,2.464431557617189,-0.4520472033618345,1.8244546713881824,124.83254034931466,1.2276692,-50.35179822213953,27.0,-37.0,506.0,1.8795492544306605,-41.25571520165338
218.06506,2.367080483398439,-0.5234642038971288,1.8317793331203744,124.8436102946047,1.2276692,-50.35179822213953,32.0,-37.0,508.0,1.9050084156187816,-39.21287695171853
218.06516,2.807189736328126,-0.5544307029305634,1.843346134112402,124.85583618655814,1.2306018,-50.10347783493101,32.0,-39.0,509.0,1.9248102180319409,-38.40919970581685
218.06465,2.698684487304689,-0.5538789776719919,1.848729817224331,124.86218449489198,1.2306018,-50.10347783493101,32.0,-39.0,507.0,1.9298078218415389,-38.46458962037608
218.06451,2.319427285156252,-0.5346759385472352,1.8217768696628915,124.862846388392,1.2306018,-50.10347783493101,28.0,-38.0,509.0,1.8985163069877025,-38.785409281167055
218.06381,2.161224160156252,-0.5374523443107316,1.7897618442800922,124.870770212331,1.2306018,-50.10347783493101,33.0,-37.0,505.0,1.8686162978663567,-38.419274123129306
218.06323,2.3113096093750016,-0.5861915557259396,1.752809257271071,124.88878079142954,1.2306018,-50.10347783493101,31.0,-39.0,508.0,1.848115867761068,-36.62452679170331
218.06242,2.496887001953126,-0.6509122935248026,1.7091769249505282,124.9040420516389,1.2306018,-50.10347783493101,29.0,-39.0,504.0,1.8287892492009548,-34.25226819696413
218.06198,2.859924111328126,-0.7283093262341439,1.6778422839027478,124.91737657246443,1.2332269,-49.844551327124286,31.0,-39.0,508.0,1.8289294703735983,-31.623021458377902
218.06158,2.629730019531252,-0.7816239115341197,1.673067581911772,124.94159561509429,1.2332269,-49.844551327124286,33.0,-39.0,505.0,1.846455212335658,-30.02224079570757
218.06161,2.835586342773439,-0.8511639572376721,1.6518373200031615,124.9661769595568,1.2332269,-49.844551327124286,27.0,-40.0,508.0,1.8580215646713556,-27.777282317459832
218.06178,2.920745644531252,-0.9036346448837465,1.6018101725963754,124.97971643028204,1.2332269,-49.844551327124286,32.0,-40.0,506.0,1.8388857711634607,-25.59584207489159
218.06186,2.691589150390626,-0.8961244716343445,1.5526257005749196,124.98703004751492,1.2332269,-49.844551327124286,29.0,-39.0,509.0,1.7924563456677765,-25.02489167722131
218.062,3.339538369140626,-0.8977361002728804,1.5378151114735306,125.00059012097908,1.2332269,-49.844551327124286,32.0,-42.0,504.0,1.780458278201995,-24.72809829188121
218.06235,2.754455361328126,-0.9188685291649724,1.5253323273040311,125.02652892366902,1.2353655,-49.56633672611465,30.0,-41.0,507.0,1.7804944791771489,-23.912294148978223
218.06268,3.0900876855468766,-0.9683031000537178,1.536607051978232,125.02627069591227,1.2353655,-49.56633672611465,29.0,-41.0,509.0,1.816004788642818,-22.760114488378527
218.06282,2.550628457031252,-1.0175058905776575,1.5546646212534032,125.026054081469,1.2353655,-49.56633672611465,31.0,-42.0,508.0,1.8577633041337345,-21.77345317687485
218.06296,2.8132627343750016,-1.0337316270347636,1.5779668063528125,125.03071693523766,1.2353655,-49.56633672611465,32.0,-40.0,508.0,1.8861336605536128,-21.74412477943942
218.06323,2.273788247070314,-1.0115276210310369,1.5600449272849817,125.03943376482432,1.2353655,-49.56633672611465,33.0,-42.0,505.0,1.8590097948233089,-22.0050802600814
218.06311,2.548599038085939,-0.96538617965161,1.5472728699340774,125.03387058881562,1.2353655,-49.56633672611465,33.0,-42.0,507.0,1.8234906202700252,-23.008774618297146
218.06264,2.299148354492189,-0.8796216444835704,1.4937639078171272,125.0083428312487,1.2370652,-49.28329663648727,31.0,-41.0,506.0,1.7333101130694188,-24.50312718155268
218.06287,3.237121376953126,-0.8074947499182776,1.439889647491337,124.9970083551108,1.2370652,-49.28329663648727,35.0,-41.0,505.0,1.6506911018721124,-25.72267107344647
218.06322,2.367080483398439,-0.7263576901754442,1.3996120632824738,124.98711578332107,1.2370652,-49.28329663648727,33.0,-40.0,508.0,1.5767339048909323,-27.588297966792773
218.06313,2.5151365136718766,-0.6599543221335317,1.3837002934320763,124.97716575735636,1.2370652,-49.28329663648727,33.0,-39.0,506.0,1.5329147511298011,-29.527421686681883
218.06258,2.5942380761718766,-0.5624987472572486,1.3936020319763562,124.98818922365274,1.2370652,-49.28329663648727,36.0,-38.0,508.0,1.5027581191482562,-33.03464254794043
218.06265,2.7473447656250016,-0.4602737582996076,1.4412298872742435,124.9900304514093,1.2370652,-49.28329663648727,32.0,-35.0,507.0,1.5128836217118502,-37.30161929691036
218.0625,2.5546872949218766,-0.3515338604294422,1.518721342780329,124.99937236547574,1.2380568,-49.03090377175769,32.0,-36.0,508.0,1.5588376588556276,-41.97084960032304
218.06241,2.698684487304689,-0.2161231683861862,1.5469399852998025,125.00669632420176,1.2380568,-49.03090377175769,31.0,-35.0,508.0,1.5619497942236351,-47.0418543314066
218.06241,2.534408364257814,-0.0409790875692585,1.5220642627044985,125.00974013526682,1.2380568,-49.03090377175769,30.0,-33.0,508.0,1.5226152914841882,-53.448399760753446
218.06187,2.328552041015626,0.1023952432932549,1.4440006260876046,125.02359139426716,1.2380568,-49.03090377175769,33.0,-32.0,510.0,1.4476234721930834,-59.03165728190305
218.06151,2.477615151367189,0.1350910647400341,1.353585928970918,125.03083332876218,1.2380568,-49.03090377175769,32.0,-31.0,510.0,1.3603054384946467,-60.66750466141925
218.06097,2.210906777343752,0.0192590822776747,1.252034355037642,125.05175193114664,1.2380568,-49.03090377175769,30.0,-31.0,509.0,1.252182375831978,-55.8293752883818
218.06007,2.299148354492189,-0.1682409038658578,1.203914660888738,125.06383895938772,1.2385451,-48.81543922083959,32.0,-33.0,507.0,1.2156063726627029,-46.98202100619064
