IMU_ATTI(0):alti:D,IMU_ATTI(0):relativeHeight:C,IMU_ATTI(0):roll:C,IMU_ATTI(0):pitch:C,IMU_ATTI(0):yaw:C,AirSpeed:windSpeed,AirSpeed:windDirection
220.44945,2.174347081054691,-1.3946748060793226,0.3048146075039069,127.42442292692228,1.4929154,-2.57599603444593
220.44908,1.7393952988281285,-1.3759562824656435,0.2271625103662846,127.43436352157129,1.4929154,-2.57599603444593
220.44843,1.9168244980468785,-1.370296441367047,0.1766932534615735,127.43945028450058,1.4929154,-2.57599603444593
220.44853,2.6204377792968785,-1.3596365299713746,0.2045353724306859,127.46458716885438,1.4929154,-2.57599603444593
220.4487,1.947235264648441,-1.3572100099634403,0.2221338420214031,127.4702436686544,1.4929154,-2.57599603444593
220.4486,2.033416905273441,-1.375121966019458,0.2346217513024711,127.48807567151306,1.4902343,-2.518043767664138
220.44835,1.7363435410156285,-1.4374770018740506,0.2739962814310619,127.52784594101708,1.4902343,-2.518043767664138
220.44827,2.748169102539066,-1.475485838929504,0.3279823145210224,127.54453348500611,1.4902343,-2.518043767664138
220.4483,2.274719395507816,-1.553057361136062,0.3719667024065141,127.56911840012012,1.4902343,-2.518043767664138
220.44814,2.093231358398441,-1.609109222045703,0.3690437778443286,127.59004910574706,1.4902343,-2.518043767664138
220.4477,1.7748872421875037,-1.6461957513673628,0.364599776633574,127.60106443728716,1.4902343,-2.518043767664138
220.44734,1.715057530273441,-1.655183352952283,0.3603537994286214,127.60697144075334,1.4867322,-2.3645581232217587
220.44704,1.900604405273441,-1.6549331900337692,0.3291678282434495,127.61361615522468,1.4867322,-2.3645581232217587
220.44704,1.764740147460941,-1.6600211574838106,0.2781597229309249,127.61806924276824,1.4867322,-2.3645581232217587
220.44737,2.321350254882816,-1.7082036896754011,0.2437379951330361,127.62581332583488,1.4867322,-2.3645581232217587
220.44759,1.8225251816406285,-1.807836466700992,0.2367298117016522,127.6331256424307,1.4867322,-2.3645581232217587
220.4478,2.022262730468753,-1.8739921494946048,0.2434916923763976,127.62558966457196,1.4867322,-2.3645581232217587
220.44788,1.952301182617191,-1.93139170612091,0.2741886576354445,127.62165481478428,1.4832553,-2.13249553336382
220.44785,1.344970860351566,-1.9659226890113024,0.3204707467494403,127.61879999152823,1.4832553,-2.13249553336382
220.44829,2.0293733261718785,-1.95042457737605,0.3271545063483272,127.59668293076908,1.4832553,-2.13249553336382
220.4491,2.174347081054691,-1.9361847923400983,0.3061806669442538,127.58354080659112,1.4832553,-2.13249553336382
220.44987,2.485595860351566,-1.9442344033801997,0.2953561538197177,127.56173159273904,1.4832553,-2.13249553336382
220.45143,2.434906163085941,-1.9394248270019288,0.2837899703434621,127.5438234560264,1.4832553,-2.13249553336382
220.45193,2.127716221679691,-1.9371016151050124,0.2398051787935363,127.53161652979944,1.4802961,-1.8792170578431489
220.4525,2.502838291992191,-1.917432669251332,0.1700068947541721,127.51886115565176,1.4802961,-1.8792170578431489
220.4529,1.996917881835941,-1.852281784526522,0.1406331779462942,127.51905844849252,1.4802961,-1.8792170578431489
220.45325,2.054718174804691,-1.733842903549373,0.137672541457253,127.500657468434,1.4802961,-1.8792170578431489
220.45357,2.204757847656253,-1.6239659568015157,0.1129742465878017,127.48632663629796,1.4802961,-1.8792170578431489
220.45355,2.042541661132816,-1.5140580325669954,0.0748708323092962,127.47217803383607,1.4802961,-1.8792170578431489
220.45354,2.506897129882816,-1.3739827640029192,0.0480116651591023,127.45041877323764,1.4770801,-1.6502978237648016
220.4533,2.0709382675781285,-1.262909668622859,0.0296945919042834,127.4403947748006,1.4770801,-1.6502978237648016
220.45273,2.2960054062500035,-1.185464163648797,0.0411509037573847,127.43918649054852,1.4770801,-1.6502978237648016
220.4524,2.137848057617191,-1.1724779407117298,0.0479203331919132,127.44683294328814,1.4770801,-1.6502978237648016
220.45267,2.829284825195316,-1.1753331289327844,0.0338270094925269,127.43235599842978,1.4770801,-1.6502978237648016
220.45238,2.096283116210941,-1.1753164254318964,-0.0016573899685555,127.44188082507516,1.4770801,-1.6502978237648016
220.45226,1.8894502304687533,-1.1937553926151214,-0.018981696265397,127.45540484905632,1.4723647,-1.426477650016816
220.45197,2.073974766601566,-1.1952383019501394,-0.0478517191820402,127.4690803818014,1.4723647,-1.426477650016816
220.45164,2.0577546738281285,-1.1142601638525658,-0.088070423888175,127.48188907901675,1.4723647,-1.426477650016816
220.45119,2.0760041855468785,-1.069162674165041,-0.1322010521913608,127.49581044960544,1.4723647,-1.426477650016816
220.4512,1.601501622070316,-1.0323656645004675,-0.1821680694607811,127.50425132391072,1.4723647,-1.426477650016816
220.45099,2.1641999863281285,-1.0209801828638905,-0.2441596331762449,127.5063630776061,1.46581,-1.138546611572188
220.45102,2.4430085800781285,-1.0171371949184167,-0.3581311698721879,127.51507259002614,1.46581,-1.138546611572188
220.45056,1.2932588242187537,-1.0545806189364555,-0.4800722421088865,127.52839741493284,1.46581,-1.138546611572188
220.45047,1.993866124023441,-1.1391539819619656,-0.6616712152370497,127.55364525617904,1.46581,-1.138546611572188
220.45023,2.2767488144531285,-1.2509827439015215,-0.8303342767818156,127.5648388420746,1.46581,-1.138546611572188
220.44983,2.2068025253906285,-1.4069720891342214,-0.9415886244645384,127.58370630987204,1.46581,-1.138546611572188
220.44933,2.254440464843753,-1.5680523845142542,-1.042869789495574,127.61002713470572,1.4575772,-0.7444792879487763
220.44882,2.2524263046875035,-1.6742247367753988,-1.1021375752192053,127.63870039715856,1.4575772,-0.7444792879487763
220.44827,1.7282258652343785,-1.7791231682278723,-1.1436283992368534,127.65322306171268,1.4575772,-0.7444792879487763
220.44807,2.047607579101566,-1.8499527986866944,-1.1081132418755733,127.67338326868624,1.4575772,-0.7444792879487763
220.44734,2.0030061386718785,-1.8630218387037552,-1.0683078303050677,127.67609662542478,1.4575772,-0.7444792879487763
220.44733,1.9127656601562533,-1.8293429871856717,-1.0286674869933212,127.68544916939985,1.4575772,-0.7444792879487763
220.44823,2.179412999023441,-1.818589342423263,-0.9570508960550228,127.6994424804918,1.4492255,-0.2577380089529406
220.44855,2.2138826035156285,-1.8108683067141584,-0.8627702433115998,127.6877374073668,1.4492255,-0.2577380089529406
220.44852,1.994903721679691,-1.8011386869132509,-0.7900004253071662,127.6856507890014,1.4492255,-0.2577380089529406
220.44914,2.4947358750000035,-1.793039537981947,-0.7606672777122288,127.67831174931162,1.4492255,-0.2577380089529406
220.44968,1.7079621933593785,-1.8043901480512088,-0.7455671711875237,127.67672373813946,1.4492255,-0.2577380089529406
220.45027,2.342651524414066,-1.8412933071844289,-0.7720291425257368,127.67119619142662,1.4492255,-0.2577380089529406
220.45074,1.782989659179691,-1.9180074461791807,-0.8139873904033609,127.6750679976074,1.4418727,0.2615299355357824
220.45137,2.0678865097656285,-1.989358403037448,-0.8211250143726566,127.66808779803388,1.4418727,0.2615299355357824
220.45197,2.0202485703125035,-2.0506802831957853,-0.8071774886446937,127.67760324410432,1.4418727,0.2615299355357824
220.45241,2.073974766601566,-2.0956244913263027,-0.759337882073805,127.67211728177128,1.4418727,0.2615299355357824
220.45285,1.687683262695316,-2.1363578778502808,-0.687564031090036,127.6773394331178,1.4418727,0.2615299355357824
220.45299,2.1601411484375035,-2.1472427388591657,-0.6158762949269394,127.66775584869715,1.4418727,0.2615299355357824
220.45241,2.1490022324218785,-2.12143307607746,-0.4733994107607451,127.66654715077912,1.4418727,0.2615299355357824
220.45197,1.878296055664066,-2.089898034854876,-0.3392300662681878,127.6620202859021,1.4418727,0.2615299355357824
220.45206,2.207809605468753,-2.04059592243573,-0.264330282863214,127.65715182040122,1.4418727,0.2615299355357824
220.45221,1.9685212753906285,-1.9854726926603763,-0.2083352359175659,127.65566250647234,1.4418727,0.2615299355357824
220.45268,1.778930821289066,-1.906700298740449,-0.1607670714453811,127.66464043821264,1.4418727,0.2615299355357824
220.45274,2.1490022324218785,-1.8599969285096971,-0.1406674362815811,127.67030882463207,1.4418727,0.2615299355357824
220.45256,1.642059483398441,-1.8445247154373048,-0.1066822611158047,127.67720031151909,1.4318254,1.2398199341105194
220.45268,2.273712315429691,-1.8433182500535303,-0.0648915453812143,127.68437549913102,1.4318254,1.2398199341105194
220.45305,1.8580171250000037,-1.8482255676825727,0.0126439250915061,127.69158627288655,1.4318254,1.2398199341105194
220.45267,1.695800938476566,-1.832420610134114,0.0815294152910515,127.69477384443115,1.4318254,1.2398199341105194
220.45253,2.377105870117191,-1.7496064884718725,0.1074160499371247,127.69842048264698,1.4318254,1.2398199341105194
220.45285,2.274719395507816,-1.640171811535603,0.1225893592556664,127.68780196203306,1.4318254,1.2398199341105194
220.45312,1.906677403320316,-1.5535482434066683,0.1216609324491506,127.6739032762752,1.4280769,1.6659028343240734
220.45325,2.417663731445316,-1.4777074512341883,0.1024133816031919,127.66656295868206,1.4280769,1.6659028343240734
220.45404,2.0810701035156285,-1.453965275838098,0.069625153233486,127.66977559942052,1.4280769,1.6659028343240734
220.45387,1.5274812363281285,-1.4818242027095472,0.0590745060542946,127.65355200168936,1.4280769,1.6659028343240734
220.4539,1.8803254746093785,-1.5023857000119316,0.0394312237888014,127.64625592294206,1.4280769,1.6659028343240734
220.45424,2.609283604492191,-1.5469092419556605,0.0224250805026667,127.6390775506565,1.4280769,1.6659028343240734
220.45383,1.8245698593750037,-1.6182994127017172,0.0273539884762292,127.63848016352404,1.4242803,2.066662803019779
220.45346,1.9188386582031285,-1.7121492513317376,0.0540820586994547,127.6387760990017,1.4242803,2.066662803019779
220.45381,2.4420015000000035,-1.7889500618440222,0.0691402028385562,127.6390074810926,1.4242803,2.066662803019779
220.45401,1.902618565429691,-1.821898314842185,0.0500130963409951,127.63298341738242,1.4242803,2.066662803019779
220.45428,2.350753941406253,-1.8303976100843335,0.0236724298268024,127.64464930108808,1.4242803,2.066662803019779
220.45505,2.210861363281253,-1.829103873238301,0.0250673448401073,127.64232969429588,1.4242803,2.066662803019779
220.4557,2.472412266601566,-1.8213471815047293,0.0031493594826478,127.62513460247702,1.4205855,2.466527804233568
220.4561,1.6785432480468785,-1.820198315464392,-0.0378310110618588,127.61676466243534,1.4205855,2.466527804233568
220.4555,1.836731114257816,-1.8301301041255589,-0.0744844861694869,127.61511250219456,1.4205855,2.466527804233568
220.45528,1.910736241210941,-1.838587859517777,-0.1121978753946926,127.5975829199922,1.4205855,2.466527804233568
220.4547,1.8843843125000037,-1.8057300624859125,-0.1704275893082235,127.58519719884902,1.4205855,2.466527804233568
220.45473,2.1631929062500035,-1.790967586087727,-0.2373931389944504,127.56448618548828,1.4205855,2.466527804233568
220.45447,2.3132478378906285,-1.8438813650123276,-0.2709578464896744,127.556184690731,1.416689,2.8821010957558757
220.45377,2.009079136718753,-1.849041539261794,-0.3612581206392787,127.55588999694454,1.416689,2.8821010957558757
220.45314,1.705932774414066,-1.805404140817459,-0.468683974264762,127.5587396929071,1.416689,2.8821010957558757
220.45236,1.7586518906250037,-1.7351603249515637,-0.5499337350203697,127.57961160114792,1.416689,2.8821010957558757
220.45152,1.7241670273437537,-1.6971978316709735,-0.6229927950761627,127.58832661529507,1.416689,2.8821010957558757
220.451,1.8539582871093785,-1.6400311525622853,-0.6591556302626316,127.59874578004504,1.416689,2.8821010957558757
220.45065,2.323394932617191,-1.5525653125341847,-0.7170490663631527,127.62873937234296,1.4118872,3.338370836340703
220.45018,1.8843843125000037,-1.5373440551604736,-0.7574017916742208,127.64601563818896,1.4118872,3.338370836340703
220.45009,2.282837071289066,-1.525500837217079,-0.783225226398801,127.6651276684438,1.4118872,3.338370836340703
220.44998,1.8772737167968785,-1.5196712973814352,-0.774697875219062,127.66669020217118,1.4118872,3.338370836340703
220.44974,1.848877110351566,-1.5286591700865653,-0.7627802039809268,127.68450577270563,1.4118872,3.338370836340703
220.45027,1.906677403320316,-1.5769808091718076,-0.738734401059721,127.68948216332504,1.4118872,3.338370836340703
220.4504,2.281829991210941,-1.6147446695821253,-0.6899800830503939,127.7030481143819,1.4059358,3.8433937447578255
220.45027,2.0395051621093785,-1.6321838324123974,-0.6673346808365505,127.71095118550528,1.4059358,3.8433937447578255
220.45076,2.7532502792968785,-1.6375928916858178,-0.6324500222471737,127.72356115508887,1.4059358,3.8433937447578255
220.45146,1.9533235214843785,-1.6623357813485728,-0.6053541353541503,127.7235036474806,1.4059358,3.8433937447578255
220.45164,2.088165440429691,-1.7063547413257465,-0.5752937973399377,127.71850964008712,1.4059358,3.8433937447578255
220.4516,2.1530610703125035,-1.7214465516482045,-0.5850761675336161,127.71451811140204,1.4059358,3.8433937447578255
220.45152,1.9614411972656285,-1.7084685794838277,-0.6210513870291008,127.7050718801858,1.3994555,4.383777612940521
220.45204,2.632614292968753,-1.692492606807791,-0.6667860521203041,127.72042133895803,1.3994555,4.383777612940521
220.45245,2.831298985351566,-1.6262679907927382,-0.7169706076217929,127.70648817050451,1.3994555,4.383777612940521
220.45242,2.141906895507816,-1.5445723499682595,-0.7647010835169463,127.71993314925146,1.3994555,4.383777612940521
220.45224,2.2726899765625035,-1.5328650718640735,-0.8205451581629452,127.70863777703416,1.3994555,4.383777612940521
220.4525,2.6680757187500035,-1.56940103030364,-0.8306621555319642,127.69671991809838,1.3994555,4.383777612940521
220.45235,2.214889683593753,-1.5569452502303516,-0.7857786957554507,127.6963449030963,1.3928277,4.943853890745999
220.45244,2.3081819199218785,-1.5397577931559665,-0.74014393483855,127.70031176491148,1.3928277,4.943853890745999
220.45258,1.553833165039066,-1.549261249604361,-0.7106022188531264,127.68766750990176,1.3928277,4.943853890745999
220.4527,2.4450532578125035,-1.5601429452119595,-0.7052068540134482,127.6938248227362,1.3928277,4.943853890745999
220.45317,2.0263215683593785,-1.6149451191770758,-0.7632257358216732,127.70701888509755,1.3928277,4.943853890745999
220.45338,1.838745274414066,-1.682137111637772,-0.8166604720290538,127.7206647619116,1.3928277,4.943853890745999
220.45357,2.1165620468750035,-1.7224661907438192,-0.8264645678823778,127.7253717738924,1.3863342,5.51625058859193
220.45335,2.050659336914066,-1.755649881511684,-0.800516884882385,127.712137897237,1.3863342,5.51625058859193
220.4531,1.8306428574218785,-1.7886834845779356,-0.7656578941632927,127.71950829997994,1.3863342,5.51625058859193
220.45241,1.9675141953125037,-1.8550807312641124,-0.7350086352678347,127.70525958294247,1.3863342,5.51625058859193
220.45227,2.389282383789066,-1.9146569295056188,-0.7309740444925793,127.7091066073372,1.3863342,5.51625058859193
220.4521,2.543380894531253,-1.9352628942597008,-0.723622448835119,127.7147384390513,1.3863342,5.51625058859193
220.45224,2.217941441406253,-1.9212777155805396,-0.7467632731409957,127.7181074253549,1.3803467,6.100118870689566
220.45189,1.647125401367191,-1.8725623199576995,-0.7741875211268497,127.73954358992138,1.3803467,6.100118870689566
220.4523,3.1699067734375035,-1.82660754921219,-0.7589679668164977,127.7292907591706,1.3803467,6.100118870689566
220.45253,2.480529942382816,-1.7904662239348372,-0.7094057552555155,127.738868960231,1.3803467,6.100118870689566
220.45277,2.5971223496093785,-1.7589105789051045,-0.6560463079336787,127.74757174638106,1.3803467,6.100118870689566
220.45302,1.9188386582031285,-1.690611500377233,-0.6095001495430737,127.74733000358256,1.3803467,6.100118870689566
220.45316,2.269653477539066,-1.639556205319494,-0.5950220687288785,127.74363646334383,1.3747575,6.673131412293149
220.45314,2.2635652207031285,-1.6149945834247694,-0.585617010614853,127.73733325939376,1.3747575,6.673131412293149
220.453,1.846862950195316,-1.5941130258629672,-0.609957577137741,127.73148704619628,1.3747575,6.673131412293149
220.45267,2.1195832871093785,-1.6013415704468108,-0.6363649094747035,127.72605752005931,1.3747575,6.673131412293149
220.45267,1.760681309570316,-1.6112660993682932,-0.6708234712135114,127.7152457348845,1.3747575,6.673131412293149
220.45297,2.2554475449218785,-1.6570208643137698,-0.6758943216283305,127.70916993095504,1.3747575,6.673131412293149
220.45306,1.7241670273437537,-1.6741808833939682,-0.7021442401300033,127.70240974555324,1.3694493,7.219424095831798
220.45312,2.438965000976566,-1.6738811225938737,-0.7209132691882665,127.69677611458248,1.3694493,7.219424095831798
220.45306,1.828613438476566,-1.6418322974335695,-0.6948644349139117,127.70981230772794,1.3694493,7.219424095831798
220.45287,2.046600499023441,-1.608839501042987,-0.639102020570608,127.71600383883695,1.3694493,7.219424095831798
220.45322,1.9087068222656285,-1.5851339513915843,-0.578865744117058,127.71656781026115,1.3694493,7.219424095831798
220.45366,2.1652375839843785,-1.5616812349193898,-0.4986409359651159,127.71288886138356,1.3694493,7.219424095831798
220.45383,1.8245698593750037,-1.5614989177166063,-0.4482041274775679,127.69883656625008,1.3644264,7.745429831304534
220.45428,2.158126988281253,-1.5905801812410807,-0.4217617669916624,127.69177677423654,1.3644264,7.745429831304534
220.45493,2.5859529160156285,-1.577643409886378,-0.4255272457220544,127.6887907158451,1.3644264,7.745429831304534
220.4551,1.6805879257812537,-1.5725236994660576,-0.4456101355627737,127.6935259958338,1.3644264,7.745429831304534
220.45535,1.8772737167968785,-1.5262349007515466,-0.4309812837521173,127.70660173134706,1.3644264,7.745429831304534
220.45506,1.8164521835937533,-1.4672549762356937,-0.421347794614399,127.7041865896686,1.3644264,7.745429831304534
220.45497,1.892486729492191,-1.4364422114427144,-0.3894507838860271,127.7060058895168,1.3595048,8.24185922672892
220.45462,1.9796907089843785,-1.393249607393608,-0.3439077136777694,127.70350740672744,1.3595048,8.24185922672892
220.45453,2.1652375839843785,-1.3599160803185142,-0.2952976958891465,127.7126443794648,1.3595048,8.24185922672892
220.45451,2.240234532226566,-1.3583623660316422,-0.245157059520243,127.71387379026191,1.3595048,8.24185922672892
220.45404,2.0263215683593785,-1.3600358808832105,-0.2234121119484537,127.72515927448784,1.3595048,8.24185922672892
220.45383,1.665374913085941,-1.4126963998275843,-0.2138454098301318,127.73322482875768,1.3547213,8.684669110619323
220.45363,2.127716221679691,-1.4498850702020794,-0.1867514634169019,127.72901750712742,1.3547213,8.684669110619323
220.4537,2.0395051621093785,-1.4850609464687825,-0.1620361466270152,127.72884028909203,1.3547213,8.684669110619323
220.45364,2.133789219726566,-1.5171067696209473,-0.1280237850555132,127.72280612065737,1.3547213,8.684669110619323
220.4535,2.0770112656250035,-1.5216971850503744,-0.0696080563851215,127.72470591566402,1.3547213,8.684669110619323
220.45311,2.1195832871093785,-1.5056916827634568,-0.0340424526929448,127.72095109052148,1.3547213,8.684669110619323
220.45264,1.8134004257812533,-1.485561882593552,0.0142144977580908,127.72170767293692,1.3503667,9.0707688037026
220.4523,1.7140351914062537,-1.4612788761829734,0.0562574934599929,127.72118522411849,1.3503667,9.0707688037026
220.45198,2.0243074082031285,-1.4535103531591114,0.0740792234777875,127.72320031603805,1.3503667,9.0707688037026
220.45212,2.194626011718753,-1.451775185211426,0.067721327758385,127.73324478905678,1.3503667,9.0707688037026
220.45164,2.267624058593753,-1.4945000386248053,0.0548242271693595,127.7497946639144,1.3503667,9.0707688037026
220.4518,2.1490022324218785,-1.523318731587206,0.0485975224322397,127.7642650029783,1.3503667,9.0707688037026
220.45218,2.0111238144531285,-1.5166927687165723,0.0570655884910703,127.77372113746608,1.3462042,9.398273325224102
220.45262,2.237213291992191,-1.5411245527696549,0.0836968658469305,127.77901024584165,1.3462042,9.398273325224102
220.45285,2.2564851425781285,-1.5744609800540623,0.0469480716650191,127.7950901386142,1.3462042,9.398273325224102
220.45291,1.941162266601566,-1.607916529910559,0.0243184606336653,127.79748287174806,1.3462042,9.398273325224102
220.45282,2.530212559570316,-1.6112933097100646,0.0558460722173855,127.8090178563898,1.3462042,9.398273325224102
220.45358,2.424774327148441,-1.5749410695314088,0.0971017326653362,127.80623254153616,1.3462042,9.398273325224102
220.45383,1.7637178085937537,-1.506818121108184,0.1721413650872671,127.80529832486276,1.342144,9.67738962244074
220.45413,1.322662510742191,-1.4419719151911294,0.2250918736441656,127.7972080146781,1.342144,9.67738962244074
220.45413,1.802246250976566,-1.4144738369527403,0.2773642433938508,127.79965549108476,1.342144,9.67738962244074
220.45422,1.6684114121093785,-1.3538798739193512,0.2905816523981825,127.8069193153758,1.342144,9.67738962244074
220.45345,1.601501622070316,-1.275516842985711,0.2812239464074076,127.8257296610108,1.342144,9.67738962244074
220.45375,2.197662510742191,-1.1676573249151454,0.2554986637702964,127.82772218672486,1.342144,9.67738962244074
220.45415,1.7120210312500037,-1.0560007434893346,0.2413611422555411,127.84237653739572,1.3380806,9.893669987670783
220.45444,1.7667695664062537,-0.9755532365664216,0.236004440708225,127.85602378652256,1.3380806,9.893669987670783
220.45483,2.197662510742191,-0.952811908264908,0.2527752218404905,127.8566240133059,1.3380806,9.893669987670783
220.45549,2.1703035019531285,-0.9590083671153528,0.2754098222337465,127.8655100808236,1.3380806,9.893669987670783
220.45573,2.139862217773441,-0.9398632669035516,0.3289357848531186,127.8531298302638,1.3380806,9.893669987670783
220.45575,2.2726899765625035,-0.9175782554817812,0.3502756612534877,127.87419178891112,1.3380806,9.893669987670783
220.45538,2.436935582031253,-0.867502053638494,0.3732831077265352,127.87563660125112,1.3338985,10.039519691804546
220.455,1.9735871933593785,-0.7969377349419738,0.4277242862660659,127.87649222729218,1.3338985,10.039519691804546
220.4547,2.235168614257816,-0.7875411517232042,0.4604873600605621,127.886153147912,1.3338985,10.039519691804546
220.45456,2.3466951035156285,-0.8274864136600067,0.5204533528249257,127.89824784256504,1.3338985,10.039519691804546
220.45444,1.802246250976566,-0.9224805244943748,0.6084637716463558,127.90177637521629,1.3338985,10.039519691804546
220.45438,1.788055577148441,-1.0481156163332517,0.6984506422764692,127.8983563174332,1.3338985,10.039519691804546
220.45433,1.9228974960937533,-1.1754910192134091,0.792501841949349,127.90233963253532,1.3304125,10.122277982527883
220.45468,2.2098237656250035,-1.2900967506397567,0.8731867468838902,127.89814986302932,1.3304125,10.122277982527883
220.45517,2.2960054062500035,-1.390926082792268,0.8851188021288013,127.90470313472947,1.3304125,10.122277982527883
220.45581,2.047607579101566,-1.4734155922010708,0.884082707233135,127.9058086755496,1.3304125,10.122277982527883
220.45638,2.191589512695316,-1.5061177831292494,0.9363431013942246,127.90608664377326,1.3304125,10.122277982527883
220.45659,1.747497715820316,-1.502531552374483,0.9602202193047596,127.90140493159204,1.3304125,10.122277982527883
220.45653,1.8752595566406285,-1.4766054363710357,0.992492913090563,127.87453434147608,1.3283776,10.152439689080044
220.45683,1.5507966660156285,-1.4149624363630753,1.05093277038811,127.85035633689574,1.3283776,10.152439689080044
220.45674,2.3466951035156285,-1.344894352669317,1.059486297371707,127.82066345220994,1.3283776,10.152439689080044
220.45651,1.983734288085941,-1.2795591614269313,1.0719466044793613,127.77808271837893,1.3283776,10.152439689080044
220.45627,2.1601411484375035,-1.2436702277758094,1.0522465309339597,127.73865866977567,1.3283776,10.152439689080044
220.45613,2.1500093125000035,-1.2270820996272906,1.0382583642605123,127.71249937403012,1.3283776,10.152439689080044
220.45613,2.1490022324218785,-1.24752240669208,0.9969887538406064,127.69053827544796,1.327546,10.132609186008748
220.45592,2.186523594726566,-1.3096486501999431,0.9509630423416054,127.65727374682145,1.327546,10.132609186008748
220.45615,2.3862458847656285,-1.341796138840045,0.8827693988335369,127.64239773347693,1.327546,10.132609186008748
220.45605,1.949279942382816,-1.4133672364526362,0.8272583897838771,127.6286786479738,1.327546,10.132609186008748
220.45602,1.886413731445316,-1.4854360900212231,0.7511927950970844,127.63740555594828,1.327546,10.132609186008748
220.45558,2.3183137558593785,-1.5221598471932094,0.6684520032967368,127.66275705717526,1.327546,10.132609186008748
220.45515,1.9817048691406285,-1.5846897958513335,0.5776500846546058,127.66596386735544,1.3274479,10.115359956653664
220.45467,2.082092442382816,-1.6259638781677226,0.5306140523274194,127.6726808124619,1.3274479,10.115359956653664
220.45375,1.9725801132812533,-1.6693555897464758,0.5114097913786971,127.67200835489764,1.3274479,10.115359956653664
220.45319,2.4491120957031285,-1.7071727402188408,0.4964874219564281,127.67199115575043,1.3274479,10.115359956653664
220.45209,2.3061372421875035,-1.7333188646451194,0.4762616323289786,127.66512243898453,1.3274479,10.115359956653664
220.45187,1.8154451035156285,-1.681020295298298,0.4709796397704237,127.66171571141554,1.3274479,10.115359956653664
220.45142,2.055725254882816,-1.609412398714238,0.4501456410050272,127.66752000985544,1.3274618,10.171039085221432
220.45111,1.746490635742191,-1.5698192152202015,0.4127657019497223,127.66017227108838,1.3274618,10.171039085221432
220.45161,2.239227452148441,-1.591920354860273,0.3906207248768012,127.6605781221614,1.3274618,10.171039085221432
220.45201,1.8215181015625037,-1.6236861528015505,0.3985768808422285,127.6621666344912,1.3274618,10.171039085221432
220.45273,2.088165440429691,-1.6253363959656872,0.4400240475529682,127.65664453490037,1.3274618,10.171039085221432
220.45355,2.121627964843753,-1.6174579773635651,0.4895752183799025,127.6291959052676,1.3274618,10.171039085221432
220.45409,2.005035557617191,-1.5861704906285137,0.4892876685259428,127.61072947868828,1.3270768,10.302305604861887
220.4546,2.429840245117191,-1.5841878886029217,0.4546500669548053,127.58927876644172,1.3270768,10.302305604861887
220.45488,2.481537022460941,-1.6345111093085638,0.3927067894392034,127.55926203090836,1.3270768,10.302305604861887
220.45506,1.6288606308593785,-1.684816794834232,0.2749896446730726,127.52710916086332,1.3270768,10.302305604861887
220.45477,2.074997105468753,-1.692400051895253,0.1252952507997644,127.50218376430688,1.3270768,10.302305604861887
220.45468,2.051666416992191,-1.684208181025344,0.0332080078324248,127.49105487402424,1.3270768,10.302305604861887
220.45428,1.6785432480468785,-1.6643060704947508,-0.0430333258477868,127.48826277662376,1.3259646,10.506471620437392
220.45406,1.7231599472656285,-1.6285820862263052,-0.139504960826672,127.48815960441227,1.3259646,10.506471620437392
220.45422,2.244308628906253,-1.6131002515355697,-0.2212846652140049,127.4894663585863,1.3259646,10.506471620437392
220.45424,1.4676667832031285,-1.5843196082816748,-0.2891986729684918,127.50595837230796,1.3259646,10.506471620437392
220.45395,1.7718354843750037,-1.5386083241244135,-0.2997339368121954,127.50916927185732,1.3259646,10.506471620437392
220.45392,2.0800630234375035,-1.464542840313747,-0.3144103586209764,127.50685066569127,1.3259646,10.506471620437392
220.45378,1.7140351914062537,-1.3834263227937105,-0.3693657613697995,127.50791092377736,1.3232297,10.803365587768686
220.45267,1.854980625976566,-1.267034126096808,-0.4414891820096897,127.50906357991528,1.3232297,10.803365587768686
220.45192,1.792114415039066,-1.1844466873185997,-0.4972906508376248,127.4949622814005,1.3232297,10.803365587768686
220.45122,1.764740147460941,-1.1640704850058523,-0.5748672462319159,127.49752743521854,1.3232297,10.803365587768686
220.4506,2.567718663085941,-1.1546574066504132,-0.6739675253695729,127.52107578474552,1.3232297,10.803365587768686
220.45027,2.315277256835941,-1.14358217568333,-0.7719411094130019,127.53800010496806,1.3232297,10.803365587768686
220.45026,2.2098237656250035,-1.1685590107035506,-0.8454371681793736,127.56077058447704,1.3187746,11.172721563188556
220.45035,2.3649446152343785,-1.204991534351894,-0.8763862196354724,127.57541733522046,1.3187746,11.172721563188556
220.45055,1.982727208007816,-1.2834251441282374,-0.8896236940968396,127.58898756326654,1.3187746,11.172721563188556
220.4509,2.0810701035156285,-1.3844938970452472,-0.8571789534682792,127.60515248050493,1.3187746,11.172721563188556
220.45117,2.377105870117191,-1.4803427886317757,-0.7682498935161629,127.60564715883862,1.3187746,11.172721563188556
220.45189,2.1662446640625035,-1.523076403332884,-0.6917321621909198,127.60227131483822,1.3187746,11.172721563188556
220.45253,2.137848057617191,-1.483857500235802,-0.6589959867895382,127.59014408540176,1.313592,11.599378468681945
220.45291,2.3122407578125035,-1.3742830330210112,-0.60662026775722,127.58008247370788,1.313592,11.599378468681945
220.45287,1.8580171250000037,-1.270616437954481,-0.5313101552741575,127.5697748984777,1.313592,11.599378468681945
220.45259,2.498779454101566,-1.1402504131266598,-0.4748930445832797,127.5455030022577,1.313592,11.599378468681945
220.45235,2.337585606445316,-1.067105221417161,-0.4340466958178972,127.5314564660608,1.313592,11.599378468681945
220.45206,2.186523594726566,-1.045608317033131,-0.3789885141521543,127.5227985216568,1.313592,11.599378468681945
220.45198,2.8931428574218785,-1.109484831448304,-0.3305986660670165,127.5460182418876,1.3089995,12.045510121893972
220.45189,2.805954136718753,-1.2639191640405696,-0.2904996877825438,127.55665347943068,1.3089995,12.045510121893972
220.45128,1.928985752929691,-1.447223664146124,-0.2795675624673934,127.57067744882376,1.3089995,12.045510121893972
220.45033,1.638000645507816,-1.5863552454238916,-0.2734955287885722,127.613988907334,1.3089995,12.045510121893972
220.44994,1.846862950195316,-1.7439088869932042,-0.2616578191928742,127.63390328655726,1.3089995,12.045510121893972
220.45065,2.834350743164066,-1.9371844677827152,-0.2883799967232548,127.67626787882138,1.3089995,12.045510121893972
220.45149,2.563659825195316,-2.070091955985998,-0.3555808702492984,127.73357264091864,1.3060422,12.518500551777128
220.45189,2.1723176621093785,-2.174549674573876,-0.4592566562266348,127.7555336056588,1.3060422,12.518500551777128
220.4526,2.3223725937500035,-2.315612992866411,-0.5303364020798439,127.7773334958488,1.3060422,12.518500551777128
220.45255,1.5274812363281285,-2.340851331750628,-0.5142278695967933,127.78380747831072,1.3060422,12.518500551777128
220.45271,2.183471836914066,-2.3167919801694348,-0.4641707345784574,127.77783513212832,1.3060422,12.518500551777128
220.45357,2.3548127792968785,-2.235921010379208,-0.4002285170030065,127.78898634726627,1.3060422,12.518500551777128
220.45451,1.878296055664066,-2.1231478434661413,-0.284241832515177,127.81443149229166,1.3048538,13.01272389856608
220.4553,1.6785432480468785,-2.0512848780055912,-0.1918909375740842,127.83804947701998,1.3048538,13.01272389856608
220.4562,2.1621858261718785,-1.997171839931362,-0.1271935002622089,127.85611150726616,1.3048538,13.01272389856608
220.45709,2.485595860351566,-2.021558186931254,-0.0786469134008843,127.87287186262388,1.3048538,13.01272389856608
220.45749,1.892486729492191,-2.099429477016263,-0.0485237486515077,127.88459345850735,1.3048538,13.01272389856608
220.45749,2.557586827148441,-2.139150750585564,-0.0418461705595814,127.88950704182598,1.3048538,13.01272389856608
220.45695,1.948242344726566,-2.0950368916366027,-0.0849025390036628,127.89023423797714,1.3052024,13.444112566746286
220.45706,2.400436558593753,-2.018112101938496,-0.07654556539609,127.90309912958124,1.3052024,13.444112566746286
220.45688,2.041534581054691,-1.9697523084356008,-0.0221379580099212,127.88221218416358,1.3052024,13.444112566746286
220.4568,2.279785313476566,-1.9300306399357496,0.0509167730018069,127.86866014543442,1.3052024,13.444112566746286
220.45677,2.1500093125000035,-1.9090390993162936,0.1367692925785356,127.84650036728702,1.3052024,13.444112566746286
220.45692,1.845855870117191,-1.8839087517946091,0.1940392485047028,127.82102710091584,1.3052024,13.444112566746286
220.4572,2.608276524414066,-1.8329997984877089,0.1998368883277542,127.81336945693548,1.3065959,13.805745649631003
220.45778,2.320343174804691,-1.7740997269068368,0.2557679209533414,127.79790157129725,1.3065959,13.805745649631003
220.4581,2.471405186523441,-1.780586611051357,0.3142007754011985,127.78110868323888,1.3065959,13.805745649631003
220.45866,2.045593418945316,-1.810308398153387,0.331001131641776,127.76062525941776,1.3065959,13.805745649631003
220.45927,2.3994294785156285,-1.889949101340204,0.3040747870997495,127.75197957684134,1.3065959,13.805745649631003
220.45953,2.087158360351566,-1.967348650527737,0.2043940623842269,127.73769229020424,1.308549,14.096723212398848
220.46039,2.457214512695316,-2.0084973670530712,0.0653264666115938,127.7348961996911,1.308549,14.096723212398848
220.46062,2.472412266601566,-2.0201897474402517,-0.04729695507382,127.73597242390372,1.308549,14.096723212398848
220.46066,2.0111238144531285,-1.9639503963459652,-0.1128321776334971,127.7318616152926,1.308549,14.096723212398848
220.4606,2.0293733261718785,-1.8673796320014144,-0.1508904927959607,127.72229786383252,1.308549,14.096723212398848
220.46025,1.7850190781250037,-1.8037323042566893,-0.1795869763755354,127.7223332178507,1.308549,14.096723212398848
220.46068,2.1703035019531285,-1.7691916757756738,-0.2275371349331892,127.73496609202915,1.3103871,14.372394440014642
220.46051,2.161178746093753,-1.746859410170183,-0.2581788248429443,127.74542338472024,1.3103871,14.372394440014642
220.46101,2.8830110214843785,-1.7536354585991425,-0.2567041177508973,127.76981581908596,1.3103871,14.372394440014642
220.46132,2.127716221679691,-1.7432488651308526,-0.2240884204873335,127.78881223851585,1.3103871,14.372394440014642
220.46147,2.214889683593753,-1.7033516767139611,-0.1599553652093354,127.82269208046075,1.3103871,14.372394440014642
220.46173,2.468353428710941,-1.6355908320945394,-0.0616011903800067,127.84230275536602,1.3103871,14.372394440014642
220.46184,1.5720979355468785,-1.6077363292808775,-0.0141451990593443,127.85441605431336,1.3110248,14.651910627518957
220.46196,2.5839387558593785,-1.6311389131832676,0.0377905365455532,127.86196620381708,1.3110248,14.651910627518957
220.46268,2.848541416992191,-1.631042197327478,0.113698450512608,127.8826069582288,1.3110248,14.651910627518957
220.46336,2.0810701035156285,-1.5562252693789722,0.1645575208027352,127.88733884366872,1.3110248,14.651910627518957
220.46352,2.2138826035156285,-1.4766824950832882,0.2074426453172432,127.87517327030338,1.3110248,14.651910627518957
220.4643,2.4926911972656285,-1.3561483753157015,0.2225955321170348,127.8633826326878,1.3110248,14.651910627518957
220.46463,2.073974766601566,-1.2300128791941198,0.2416603211977481,127.81550373471512,1.3104281,14.889593282029516
220.46461,2.3527986191406285,-1.1354615145991591,0.294229726628059,127.79068015203347,1.3104281,14.889593282029516
220.46478,2.2138826035156285,-1.087916529186385,0.3767219717835885,127.7512228701161,1.3104281,14.889593282029516
220.46521,2.5920564316406285,-1.0175787501202176,0.4565499754864701,127.71828896357104,1.3104281,14.889593282029516
220.46553,1.9127656601562533,-0.9354535821667064,0.5110044328155403,127.7130798584753,1.3104281,14.889593282029516
220.46635,2.366974034179691,-0.8620669656407004,0.5022163869638985,127.7143034188622,1.3104281,14.889593282029516
220.46748,2.297027745117191,-0.7777749725614551,0.4645621479885519,127.73574333585364,1.3093687,15.010295944525064
220.46844,2.0577546738281285,-0.7545626093652589,0.3806168152806142,127.74078900568657,1.3093687,15.010295944525064
220.46858,2.636657872070316,-0.819007663421494,0.2793271009538182,127.74501375013668,1.3093687,15.010295944525064
220.46811,2.496750035156253,-1.0069601117672198,0.1914457891975985,127.7480898594076,1.3093687,15.010295944525064
220.4672,2.654907383789066,-1.2372545203509342,0.2109333807178684,127.7540614556575,1.3093687,15.010295944525064
220.46689,3.0370942734375035,-1.4916900073166026,0.2632436764935189,127.7446437079059,1.3093687,15.010295944525064
220.46638,2.189544834960941,-1.799773578903195,0.3871266469704928,127.74520643612138,1.3092157,15.021090683229977
220.46548,2.652893223632816,-2.0350422197699327,0.6130341253244748,127.74734055503174,1.3092157,15.021090683229977
220.4657,2.629562535156253,-2.2221276429083705,0.8418861827346199,127.74468788535414,1.3092157,15.021090683229977
220.46548,2.055725254882816,-2.3107121085101787,1.011888711572321,127.74243316144576,1.3092157,15.021090683229977
220.4656,1.993866124023441,-2.316841155103224,1.2283562803224513,127.7279971316656,1.3092157,15.021090683229977
220.46584,2.866790928710941,-2.2312883067834344,1.3592298255661337,127.70325101299063,1.3092157,15.021090683229977
220.4668,2.641723790039066,-2.1397136721618644,1.39105986946757,127.6876645974152,1.3117309,14.964951067873676
220.46745,2.144958653320316,-2.012046364726263,1.3961382842058332,127.68071917646375,1.3117309,14.964951067873676
220.46767,2.235168614257816,-1.8097803073953245,1.3602460706750157,127.68020914035448,1.3117309,14.964951067873676
220.46759,2.498779454101566,-1.5715802008621835,1.3308903782875827,127.6702882769309,1.3117309,14.964951067873676
220.46774,2.5474397324218785,-1.4136869073943932,1.3329064959106824,127.66846986393666,1.3117309,14.964951067873676
220.46707,1.964477696289066,-1.2851299862187855,1.3264251389308048,127.66397111550224,1.3117309,14.964951067873676
220.46606,2.3051301621093785,-1.2505507608629387,1.32997600736731,127.66907117781452,1.3153433,14.886633527571975
220.46503,2.3101960800781285,-1.329383605200418,1.329059203964855,127.6768400337702,1.3153433,14.886633527571975
220.46474,1.849914708007816,-1.4103549583887227,1.2963101428937625,127.68424769448514,1.3153433,14.886633527571975
220.46448,2.545410313476566,-1.5442931533372384,1.259203266295605,127.7115974038786,1.3153433,14.886633527571975
220.46452,2.0770112656250035,-1.7059941218197117,1.226895129125511,127.72439058754011,1.3153433,14.886633527571975
220.46451,2.4926911972656285,-1.812616032164432,1.1907618529769646,127.7124376193626,1.3153433,14.886633527571975
220.4647,1.9847566269531285,-1.8889488888975368,1.1403242654613377,127.73065316541587,1.3190842,14.815106854007912
220.4649,2.387252964843753,-1.9396692104488744,1.0680919069690784,127.7511554440058,1.3190842,14.815106854007912
220.46498,1.6684114121093785,-1.935747075462797,1.011644165553479,127.76845284025686,1.3190842,14.815106854007912
220.46448,1.8164521835937533,-1.9111407620457104,0.9534795812146328,127.77446468422824,1.3190842,14.815106854007912
220.46431,2.5788728378906285,-1.856888853292345,0.9027779450649488,127.77580351378008,1.3190842,14.815106854007912
220.46454,2.4886323593750035,-1.753588062470028,0.8793168026187015,127.7740711097234,1.3190842,14.815106854007912
220.46457,1.7708284042968785,-1.593677759335242,0.8871179589160976,127.76351289897777,1.3230677,14.734228335058416
220.4646,2.473419346679691,-1.4431679550343368,0.9500362511893176,127.72746538407984,1.3230677,14.734228335058416
220.46451,2.733978428710941,-1.3497670049863335,1.0529741364900136,127.68755757009065,1.3230677,14.734228335058416
220.46437,2.3862458847656285,-1.4017038819156495,1.0754359343289563,127.64628997973846,1.3230677,14.734228335058416
220.46448,3.0807038925781285,-1.603599670263134,1.0704468769996758,127.62827516890236,1.3230677,14.734228335058416
220.46431,2.326416172851566,-1.8731759542187356,1.1088879539003536,127.61590765346772,1.3230677,14.734228335058416
220.46378,2.281829991210941,-2.0518643681712847,1.1472361101238162,127.5925388305503,1.3272893,14.608092324292103
220.46362,2.645782627929691,-2.080033041323324,1.191313445509033,127.58660629470243,1.3272893,14.608092324292103
220.46361,2.914428868164066,-2.046979712638142,1.2396820467231644,127.59411982328646,1.3272893,14.608092324292103
220.46404,2.645782627929691,-1.963684990799894,1.2301861538859988,127.60072002757808,1.3272893,14.608092324292103
220.46414,2.471405186523441,-1.8288920167452736,1.1560183419663046,127.6285020733581,1.3272893,14.608092324292103
220.46432,2.829284825195316,-1.7058661709139884,1.0520512466037737,127.66225397919136,1.3272893,14.608092324292103
220.46458,2.230102696289066,-1.6369423453561855,0.8754856587713763,127.68358357006646,1.3315731,14.527677781191066
220.46468,2.082092442382816,-1.635452810121934,0.7062984598590383,127.68421608211376,1.3315731,14.527677781191066
220.46457,2.476471104492191,-1.7459295865988649,0.5512780364735745,127.70725868270792,1.3315731,14.527677781191066
220.46458,2.453155674804691,-1.8554270995834852,0.420883008687979,127.72073749451724,1.3315731,14.527677781191066
220.46472,2.246338047851566,-1.9730170325417773,0.312948769737004,127.73347238095178,1.3315731,14.527677781191066
220.46423,2.9914704941406285,-2.048225131402089,0.2286332667841591,127.72320076130303,1.3315731,14.527677781191066
220.46416,2.2595063828125035,-2.073007298459061,0.1805952813347349,127.70129501551692,1.3348392,14.601493246062898
220.46355,2.593063511718753,-2.024260977983153,0.1741826107638319,127.66427783452436,1.3348392,14.601493246062898
220.46304,2.324402012695316,-1.891908058940595,0.1279477186870015,127.63963276207942,1.3348392,14.601493246062898
220.4625,1.954345860351566,-1.802231183510736,0.056825995418625,127.64957036086432,1.3348392,14.601493246062898
220.46217,2.321350254882816,-1.7585492576453443,-0.0596514008434075,127.65146227932452,1.3348392,14.601493246062898
220.46205,1.833679356445316,-1.6720327647096738,-0.2892708350823511,127.666275108699,1.3348392,14.601493246062898
220.4622,2.3021089218750035,-1.546728551131162,-0.5319554935872124,127.695394180422,1.3372622,14.829109498594866
220.4625,2.4561921738281285,-1.5058361265896705,-0.7105113974873766,127.76144794937808,1.3372622,14.829109498594866
220.4629,2.571777500976566,-1.5511160887349449,-0.8543391966184192,127.81785405377212,1.3372622,14.829109498594866
220.46333,2.320343174804691,-1.6095212342096952,-0.9787857851421649,127.88139036674905,1.3372622,14.829109498594866
220.46375,2.328460850585941,-1.6907615238985323,-0.988262809090334,127.94439854794462,1.3372622,14.829109498594866
220.46393,2.519043125976566,-1.7758632303898034,-0.90983353014709,127.97557257161051,1.3372622,14.829109498594866
220.46423,2.6437532089843785,-1.847155000467524,-0.7550242275605493,127.99080273770814,1.3386152,15.208269829639416
220.46443,2.1733247421875035,-1.9387478976906491,-0.6318706194277635,128.00282692267723,1.3386152,15.208269829639416
220.46419,2.5058747910156285,-2.0188861735956287,-0.5961124793388036,128.0032583006659,1.3386152,15.208269829639416
220.46431,2.1763765000000035,-2.146707170313535,-0.6781908780276094,128.00632585310902,1.3386152,15.208269829639416
220.46457,2.842453160156253,-2.314860085281396,-0.8386286320824576,127.99176504367496,1.3386152,15.208269829639416
220.46446,2.0171968125000035,-2.489993931234472,-0.9592726498501712,127.99826171458535,1.3386152,15.208269829639416
220.46428,2.870849766601566,-2.616254863633857,-1.0126645406609756,128.01811235731046,1.3407475,15.655098354541824
220.46439,2.3568269394531285,-2.6941723445369306,-0.9609346525447806,128.034276660877,1.3407475,15.655098354541824
220.4641,2.041534581054691,-2.7078921514454204,-0.8087305938585367,128.0505362846091,1.3407475,15.655098354541824
220.46393,2.2159272812500035,-2.6421843294945635,-0.6573962424939864,128.03750026735557,1.3407475,15.655098354541824
220.46362,2.178405918945316,-2.535892678749317,-0.5017559156792105,128.02586603666205,1.3407475,15.655098354541824
220.46378,3.068527378906253,-2.4607555153847254,-0.2768965206703759,128.00216774874934,1.3407475,15.655098354541824
220.46404,2.5839387558593785,-2.4522162125199727,-0.0408484467971206,127.97371924152873,1.3449455,16.048227207626176
220.46446,2.340622105468753,-2.4700503433123155,0.1306316963892814,127.9550485754176,1.3449455,16.048227207626176
220.46458,2.0760041855468785,-2.4904924116029608,0.3071308343829842,127.94897153206816,1.3449455,16.048227207626176
220.4648,1.940155186523441,-2.43141053340731,0.456991806414726,127.9454334489028,1.3449455,16.048227207626176
220.46533,2.240234532226566,-2.333967166496885,0.561708723578783,127.93416799165638,1.3449455,16.048227207626176
220.46635,2.5342561386718785,-2.2315759226199257,0.6505620023918608,127.92178321281104,1.3449455,16.048227207626176
220.46693,1.8590242050781285,-2.0775605720986485,0.7915468716755185,127.90581681002162,1.3508801,16.24094419166639
220.4675,2.4430085800781285,-1.9440079565772503,0.97042189569413,127.90259276407724,1.3508801,16.24094419166639
220.46791,2.334533848632816,-1.8597965563160237,1.1318246796227254,127.88433494089958,1.3508801,16.24094419166639
220.46846,2.324402012695316,-1.8234913959119337,1.3398634395064803,127.86599140205452,1.3508801,16.24094419166639
220.46844,2.089172520507816,-1.8417911513893157,1.5349095317020325,127.83565667344412,1.3508801,16.24094419166639
220.4681,2.179412999023441,-1.946338589614128,1.7333627512599157,127.8266421446151,1.3508801,16.24094419166639
220.46797,2.774536290039066,-2.030822438652781,1.8805402013250796,127.80185398778303,1.3577193,16.185578647239243
220.468,1.9614411972656285,-2.123617766249918,1.984090586029895,127.78864299778826,1.3577193,16.185578647239243
220.4677,2.0232698105468785,-2.1310656908677745,2.0347838980425554,127.7884252198437,1.3577193,16.185578647239243
220.4677,2.4460603378906285,-2.0560301014131195,2.002357008191955,127.78047248877108,1.3577193,16.185578647239243
220.46767,2.320343174804691,-1.9468329044883523,1.9114813201205132,127.77387870024867,1.3577193,16.185578647239243
220.46735,2.706604161132816,-1.815171650947828,1.8014231902040947,127.76515467176038,1.3577193,16.185578647239243
220.46706,2.1125032089843785,-1.716647787274963,1.7046450421574302,127.75058157969244,1.3648336,15.938991656675224
220.46674,2.6234895371093785,-1.6542925114735194,1.6326864565726538,127.7566391913884,1.3648336,15.938991656675224
220.46658,2.3568269394531285,-1.5645840616846132,1.5840813646605538,127.75686616388424,1.3648336,15.938991656675224
220.46582,2.335540928710941,-1.5178479359188175,1.5879465265329904,127.74948821382368,1.3648336,15.938991656675224
220.4656,1.844848790039066,-1.5157685955278044,1.6388062426768055,127.74377658335608,1.3648336,15.938991656675224
220.46538,2.2686311386718785,-1.539200973351461,1.6920203649338552,127.73042661706042,1.3648336,15.938991656675224
220.46535,2.365966954101566,-1.544988980822,1.712352568832903,127.71281540594366,1.3705312,15.617030169629096
220.46562,2.3487397812500035,-1.5337012728235837,1.7227333037355403,127.6958683309674,1.3705312,15.617030169629096
220.46611,2.304123082031253,-1.5397809476214472,1.6888932942787789,127.67778137546178,1.3705312,15.617030169629096
220.46646,2.4359285019531285,-1.5254411954872025,1.615920703486501,127.6925894051914,1.3705312,15.617030169629096
220.46698,2.4521333359375035,-1.5078952650965658,1.5241055575592648,127.6936002901579,1.3705312,15.617030169629096
220.46732,2.298034825195316,-1.487415909586747,1.4303643142836175,127.68695467658206,1.3705312,15.617030169629096
220.46758,2.0171968125000035,-1.4051421498471175,1.3274845057370837,127.68012189581329,1.374482,15.290858254310969
220.46797,2.3051301621093785,-1.2784035158741445,1.2137280861818591,127.65793629607246,1.374482,15.290858254310969
220.4681,2.3132478378906285,-1.1993043361006366,1.13379566945147,127.63955045878704,1.374482,15.290858254310969
220.46785,2.297027745117191,-1.163240140919927,1.1123824464565115,127.61301373650409,1.374482,15.290858254310969
220.46739,1.9127656601562533,-1.1110620303647782,1.080357625634512,127.59435512539643,1.374482,15.290858254310969
220.46689,1.890472569335941,-1.0850462434107762,1.0758523858221776,127.58746536411492,1.374482,15.290858254310969
220.46657,2.5474397324218785,-1.0609534201625916,1.0837172286291077,127.56761544168806,1.3763177,14.988098267150267
220.46684,2.4785005234375035,-1.0696375446092583,1.1106358861582888,127.5566853205216,1.3763177,14.988098267150267
220.46716,2.595092930664066,-1.0805892156806842,1.1349075284264034,127.537758533885,1.3763177,14.988098267150267
220.46768,2.4186860703125035,-1.045701307657249,1.1710970836652184,127.52633416246664,1.3763177,14.988098267150267
220.46765,2.384216465820316,-0.9899787546198356,1.170634032513964,127.5210446805027,1.3763177,14.988098267150267
220.46727,1.899597325195316,-0.8675401996209459,1.1080974005513051,127.51512968499546,1.3759986,14.71454719014129
220.46689,2.7035676621093785,-0.734558294581568,1.0554641600977903,127.49777907081754,1.3759986,14.71454719014129
220.4668,2.292968907226566,-0.5980272255310624,1.059132332268229,127.48350575943668,1.3759986,14.71454719014129
220.46661,2.659973301757816,-0.4229448463874322,1.0961601316673912,127.45219971223035,1.3759986,14.71454719014129
220.46622,2.0293733261718785,-0.320916852254027,1.0734632507518165,127.434058641143,1.3759986,14.71454719014129
220.46594,2.561645665039066,-0.2877362696724408,1.060631594901359,127.4158950551992,1.3759986,14.71454719014129
220.46507,2.0658723496093785,-0.3462609271656676,1.0744632036085195,127.39303754648886,1.3735734,14.464463578748
220.46434,2.868820347656253,-0.5226848583805359,1.128424001878463,127.3802154378054,1.3735734,14.464463578748
220.46417,2.254440464843753,-0.7363126513763577,1.1616146998781924,127.36266252876167,1.3735734,14.464463578748
220.46416,2.475464024414066,-0.9115894619926972,1.1455074720341387,127.36065055598498,1.3735734,14.464463578748
220.46399,2.3021089218750035,-1.043529163519675,1.0913501088349766,127.35614593575704,1.3735734,14.464463578748
220.46397,2.4430085800781285,-1.0973047767660171,1.0200669036451655,127.36566723262386,1.3735734,14.464463578748
220.46469,2.292968907226566,-1.0631595763004782,0.9104592995462346,127.35575420255267,1.3701624,14.246239956981965
220.4651,2.379150547851566,-1.0379816040899186,0.8054407403615539,127.36733478164024,1.3701624,14.246239956981965
220.46503,2.3963777207031285,-0.9571271343026077,0.6859233932943134,127.38215756124004,1.3701624,14.246239956981965
220.46487,1.994903721679691,-0.8434731528215691,0.539814953622995,127.40137356101128,1.3701624,14.246239956981965
220.46432,2.1601411484375035,-0.7480645924913646,0.4115294590242762,127.4178519898178,1.3701624,14.246239956981965
220.46437,1.854980625976566,-0.6903291818776681,0.3196618730351509,127.42614800138732,1.3701624,14.246239956981965
220.46411,1.9350740097656285,-0.6648729410389368,0.243330071651377,127.44824080103731,1.3654969,14.083270350021332
220.46416,2.697479405273441,-0.6691560805441519,0.17910366096422,127.47479509438514,1.3654969,14.083270350021332
220.46431,2.533249058593753,-0.6419555959097623,0.1737252423006184,127.50177568115764,1.3654969,14.083270350021332
220.46455,1.9735871933593785,-0.5874605144866243,0.1898368491284631,127.49956842782844,1.3654969,14.083270350021332
220.46396,1.593383946289066,-0.480523832540229,0.2341134473728076,127.50778205551804,1.3654969,14.083270350021332
220.46355,2.664032139648441,-0.3562313301372368,0.3341721579201963,127.511071044912,1.3654969,14.083270350021332
220.46376,1.8164521835937533,-0.2491597461257799,0.4018777547936343,127.52223712227736,1.3591706,13.97145176601609
220.4636,1.902618565429691,-0.1466852477610701,0.455901999248989,127.52824895414086,1.3591706,13.97145176601609
220.46358,2.822189488281253,-0.116257901997091,0.477692562779403,127.51279724012169,1.3591706,13.97145176601609
220.46446,2.520080723632816,-0.1360294635150491,0.4802430236344626,127.50215216405115,1.3591706,13.97145176601609
220.46455,2.5940705917968785,-0.1720536857257465,0.500118969104224,127.48326261852972,1.3591706,13.97145176601609
220.4644,2.4014436386718785,-0.2763026797934025,0.5295067191086508,127.4642688461263,1.3591706,13.97145176601609
220.4636,1.7708284042968785,-0.4072821551454736,0.5028432615663068,127.44291621723748,1.3518482,13.867754679986763
220.46277,2.347717442382816,-0.5441826603222883,0.4653827776248818,127.41743316653012,1.3518482,13.867754679986763
220.46216,2.605224766601566,-0.6877843298735464,0.4169443256322068,127.40367108553012,1.3518482,13.867754679986763
220.46146,2.014160313476566,-0.8013219029539497,0.3745119152541871,127.41897657387084,1.3518482,13.867754679986763
220.46043,1.8225251816406285,-0.8855786604928975,0.3812903191648767,127.4267500635764,1.3518482,13.867754679986763
220.45987,2.376098790039066,-0.950463737769347,0.3677899905615191,127.4472430885799,1.3518482,13.867754679986763
220.45903,2.281829991210941,-1.0445257355226905,0.3510347464192354,127.47964127383888,1.3453422,13.76852608117239
220.45871,2.051666416992191,-1.1450017818677585,0.3779808834579609,127.50542237254515,1.3453422,13.76852608117239
220.45891,2.689376988281253,-1.240470886255319,0.4161631526013629,127.53386510897543,1.3453422,13.76852608117239
220.4599,2.613342442382816,-1.3040544563624372,0.4576376447440555,127.55739084448209,1.3453422,13.76852608117239
220.46071,1.809356846679691,-1.3787233701762562,0.5302054309423169,127.57914570370954,1.3453422,13.76852608117239
220.46115,2.4551850937500035,-1.386280672969561,0.5799167084323629,127.5926658504368,1.3453422,13.76852608117239
220.46176,2.332519688476566,-1.367226343431406,0.5887373467521224,127.5992317175799,1.3406914,13.661023587009966
220.4618,2.036468663085941,-1.3490813248337985,0.6153167092894947,127.59283154130787,1.3406914,13.661023587009966
220.46217,2.197662510742191,-1.3177925972252869,0.6839410793487395,127.594498215225,1.3406914,13.661023587009966
220.46228,2.403488316406253,-1.321171804682853,0.8127968244097238,127.60198268638564,1.3406914,13.661023587009966
220.46237,1.9239045761718785,-1.361509857138444,0.9198653210877212,127.6096369291435,1.3406914,13.661023587009966
220.46312,2.342651524414066,-1.4588812236937854,1.0354079312456557,127.61137260168452,1.3406914,13.661023587009966
220.46396,2.005035557617191,-1.520991697209771,1.1208318875688164,127.61694949094112,1.3381021,13.514323398293849
220.46472,2.4916841171875035,-1.516175661585032,1.1793108595714652,127.6129931214884,1.3381021,13.514323398293849
220.4657,2.5048677109375035,-1.5034974624668451,1.267345825628153,127.61988927975696,1.3381021,13.514323398293849
220.46684,1.960418858398441,-1.4432244908285543,1.333715442631322,127.60256437169078,1.3381021,13.514323398293849
220.46765,2.5008088730468785,-1.3123087376206937,1.3649115006424304,127.60754046114874,1.3381021,13.514323398293849
220.46759,2.217941441406253,-1.2147241563472515,1.3845439541002502,127.60153893679552,1.3381021,13.514323398293849
220.46693,1.8691865585937533,-1.148332554757817,1.3888748935618485,127.59311548942944,1.3369584,13.296663547855385
220.46638,2.182464756835941,-1.0805131566906223,1.420894706791206,127.57636459083028,1.3369584,13.296663547855385
220.46594,2.5474397324218785,-1.003939853612506,1.447451273255508,127.5658199852638,1.3369584,13.296663547855385
220.46542,2.493698277343753,-0.9344351752738346,1.4896155980996373,127.5659804778318,1.3369584,13.296663547855385
220.4648,2.123657383789066,-0.9040950637156436,1.483012877613062,127.5548332562042,1.3369584,13.296663547855385
220.46442,2.4491120957031285,-0.8251592238649573,1.4215950713162884,127.5448684131814,1.3369584,13.296663547855385
220.46411,1.6126557968750037,-0.7587331454006668,1.388267422182504,127.53553648307432,1.3360407,13.004142364275037
220.46417,2.2503816269531285,-0.6908639283613639,1.288108229050354,127.5359419591127,1.3360407,13.004142364275037
220.46378,1.583252110351566,-0.690641775738943,1.1794170069442895,127.54185436068045,1.3360407,13.004142364275037
220.4631,2.1175691269531285,-0.7652500349681484,1.1089993770687496,127.55272081912813,1.3360407,13.004142364275037
220.46283,2.3497468613281285,-0.844096391632003,1.0973092758636838,127.56843084400232,1.3360407,13.004142364275037
220.46272,2.293975987304691,-0.8855994244862448,1.0751734989582202,127.58865124746664,1.3360407,13.004142364275037
220.46254,2.489669957031253,-0.8961733443509736,1.0152227331165788,127.61182152761054,1.3348243,12.675753427989685
220.46237,2.314254917968753,-0.9042999263041672,1.0058390517152382,127.62399175926627,1.3348243,12.675753427989685
220.46237,2.7674409531250035,-0.9122526857172384,1.0692831202705468,127.63310191648308,1.3348243,12.675753427989685
220.46216,2.101349034179691,-0.854148325854735,1.1073347004792762,127.6386605869046,1.3348243,12.675753427989685
220.4619,2.553527989257816,-0.7910947878331536,1.1556846148640845,127.65283458419036,1.3348243,12.675753427989685
220.46138,2.171310582031253,-0.7193644077517829,1.2378271627609034,127.6555274940342,1.3348243,12.675753427989685
220.461,2.412597813476566,-0.5978365156259777,1.2410362377058872,127.6609462304112,1.3331547,12.316836546375574
220.46077,2.3963777207031285,-0.5239599954166676,1.2196551668274094,127.68336679721352,1.3331547,12.316836546375574
220.46019,2.0232698105468785,-0.5199988030617648,1.231391098769749,127.69694257521336,1.3331547,12.316836546375574
220.45976,1.503143467773441,-0.5641236319485983,1.2140899983662783,127.70772363643113,1.3331547,12.316836546375574
220.45952,2.0678865097656285,-0.6573577728957439,1.2075297507754397,127.70830447023044,1.3331547,12.316836546375574
220.45903,2.108444371093753,-0.7644156763761458,1.1966373802774786,127.69509139930967,1.3331547,12.316836546375574
220.45853,2.273712315429691,-0.7694241547622855,1.1826022872357973,127.692420638252,1.3331547,12.316836546375574
220.45851,2.433899083007816,-0.7388277944859696,1.1910990751704944,127.69763050641916,1.3331547,12.316836546375574
220.45831,2.064865269531253,-0.762196930098855,1.1898462665280964,127.68417053436868,1.3331547,12.316836546375574
220.45836,2.801910557617191,-0.8535613982461557,1.2088931794678612,127.68421001102212,1.3331547,12.316836546375574
220.45836,2.438965000976566,-0.9820396041386829,1.1814918396484295,127.6811418858638,1.3331547,12.316836546375574
220.45856,2.425781407226566,-1.054565151320339,1.146325926359428,127.69898544978211,1.3331547,12.316836546375574
220.4581,2.147979893554691,-1.0810277865837363,1.131606526556217,127.70337628344151,1.3298159,11.535814322652344
220.45782,2.033416905273441,-1.0930145245387253,1.1002226980931495,127.71163610934052,1.3298159,11.535814322652344
220.45746,2.434906163085941,-1.1111911082398325,1.0940601080395054,127.71049682543092,1.3298159,11.535814322652344
220.45726,2.128723301757816,-1.0866607581637,1.1323127192512206,127.7167323624239,1.3298159,11.535814322652344
220.45699,2.147979893554691,-1.0022977388980852,1.149715701829137,127.7206679851586,1.3298159,11.535814322652344
220.45718,2.852584996093753,-0.9187579726111148,1.1779278756671792,127.72498597256757,1.3298159,11.535814322652344
220.45741,2.3913118027343785,-0.821788711912782,1.172795448689796,127.72459917582265,1.3286879,11.177539959655292
220.45732,2.4186860703125035,-0.7641817986533627,1.1581319103003616,127.74922579415748,1.3286879,11.177539959655292
220.45726,3.049255528320316,-0.7515698315762331,1.1738140164670812,127.77033529719496,1.3286879,11.177539959655292
220.45729,1.964477696289066,-0.7982960509209936,1.165509581449032,127.78071975042862,1.3286879,11.177539959655292
220.45714,2.4186860703125035,-0.9133985116620176,1.185716832562492,127.7895608057718,1.3286879,11.177539959655292
220.45682,2.091217198242191,-1.0386188095683369,1.218722445605397,127.79557899534704,1.3286879,11.177539959655292
220.45642,2.152038731445316,-1.129653177974395,1.2429872177046697,127.80284167006572,1.3272369,10.860334404176628
220.45645,2.423767247070316,-1.1129820435480742,1.2532023578831657,127.78563112791238,1.3272369,10.860334404176628
220.45648,2.084106602539066,-1.0879436564595,1.2236317262203211,127.7795132829804,1.3272369,10.860334404176628
220.45688,2.417663731445316,-1.064516499743932,1.167617399902027,127.76365844986483,1.3272369,10.860334404176628
220.4566,2.136840977539066,-1.0218362567514745,1.051577481698014,127.74924389131697,1.3272369,10.860334404176628
